{
  "results": [
{
  "title": "Alabama: No Prison for Resentenced Rapist",
  "body": "The State Court of Criminal Appeals on Thursday upheld a judge’s ruling that a man convicted of raping a teenage neighbor should not serve prison time.",
  "location": "Alabama",
  "lat": 32.315632031803325,
  "lng": -86.89484680930423,
  "url": "http://www.nytimes.com/2014/03/01/us/alabama-no-prison-for-resentenced-rapist.html",
  "date": "2014-03-01T00:00:00Z"
},
{
  "title": "Greek Speakers Unite",
  "body": "Metropolitan Diary: A stroller with a foreign-language phrase on his T-shirt soon got a response, but from a non-Hellenic source.",
  "location": "Alabama",
  "lat": 32.31306000525955,
  "lng": -86.8987454715976,
  "url": "http://cityroom.blogs.nytimes.com/2014/02/19/greek-speakers-unite/",
  "date": "2014-02-19T08:30:54Z"
},
{
  "title": "New Storm Has South Bracing for the Worst",
  "body": "Meteorologists say it is likely to paralyze Atlanta again and bring up to eight inches of snow to mountainous regions to the north and as much as an inch of ice to heavily populated parts of Georgia and South Carolina.",
  "location": "Georgia",
  "lat": 32.15826778628473,
  "lng": -82.9000451152402,
  "url": "http://www.nytimes.com/2014/02/11/us/new-storm-has-south-bracing-for-worst.html",
  "date": "2014-02-11T00:00:00Z"
},
{
  "title": "Judge Reinstates Some Federal Oversight of Voting Practices for an Alabama City",
  "body": "Election specialists said the move, involving Evergreen, was the first since the Supreme Court struck down part of the Voting Rights Act in June.",
  "location": "Alabama",
  "lat": 32.32098033543963,
  "lng": -86.90622844671879,
  "url": "http://www.nytimes.com/2014/01/15/us/judge-reinstates-federal-oversight-of-voting-practices-for-alabama-city.html",
  "date": "2014-01-15T00:00:00Z"
},
{
  "title": "Blogger’s Incarceration Raises First Amendment Questions",
  "body": "Roger Shuler’s accusatory posts have earned him many enemies. But even many of them are shocked by what has happened to him.",
  "location": "Alabama",
  "lat": 32.31089666521357,
  "lng": -86.90367861586573,
  "url": "http://www.nytimes.com/2014/01/12/us/bloggers-incarceration-raises-first-amendment-questions.html",
  "date": "2014-01-12T00:00:00Z"
},
{
  "title": "Alabama Prosecutor Asking Again for Tougher Rape Sentence",
  "body": "A prosecutor is trying to persuade a judge to impose a tougher sentence on a rapist to whom he gave no prison time.",
  "location": "Alabama",
  "lat": 32.32013216111905,
  "lng": -86.91081433468878,
  "url": "http://www.nytimes.com/2013/12/25/us/alabama-prosecutor-asking-again-for-tougher-rape-sentence.html",
  "date": "2013-12-25T00:00:00Z"
},
{
  "title": "Alabama: Resentenced Rapist Again Avoids Prison",
  "body": "A judge who was ordered to resentence a man convicted of rape after initially imposing a penalty without prison time on Monday again gave the man no time behind bars.",
  "location": "Alabama",
  "lat": 32.31362856815878,
  "lng": -86.90086832473968,
  "url": "http://www.nytimes.com/2013/12/24/us/alabama-resentenced-rapist-again-avoids-prison.html",
  "date": "2013-12-24T00:00:00Z"
},
{
  "title": "Alabama: Byrne Wins Congressional Seat",
  "body": "Bradley Byrne, a Republican, won the special election in the First Congressional District on Tuesday",
  "location": "Alabama",
  "lat": 32.32469754246621,
  "lng": -86.89756470385859,
  "url": "http://www.nytimes.com/2013/12/18/us/politics/alabama-byrne-wins-congressional-seat.html",
  "date": "2013-12-18T00:00:00Z"
},
{
  "title": "Close the Store, It’s the Year’s Big Game in Alabama",
  "body": "The Alabama-Auburn game, a.k.a. the Iron Bowl, is Saturday. In many parts of Alabama, life will shut down.",
  "location": "Alabama",
  "lat": 32.3187876555762,
  "lng": -86.90197534637254,
  "url": "http://www.nytimes.com/2013/11/30/us/close-the-store-its-the-years-big-game-in-alabama.html",
  "date": "2013-11-30T00:00:00Z"
},
{
  "title": "In Alabama, the Day of the Big Game (Really Big)",
  "body": "Alabama-Auburn is a major game every football season, but this year even more than usual is at stake, including championship hopes on both sides.",
  "location": "Alabama",
  "lat": 32.31592349659811,
  "lng": -86.90638406695074,
  "url": "http://www.nytimes.com/slideshow/2013/11/30/us/201311-30-ALABAMA.html",
  "date": "2013-11-30T00:00:00Z"
},
{
  "title": "Alaska: Ballot Issues Set on Wages and Marijuana",
  "body": "Lt. Gov. Mead Treadwell has certified an initiative that proposes to raise Alaska’s minimum wage by $2 an hour over two years, to $9.75.",
  "location": "Alaska",
  "lat": 64.20625051497973,
  "lng": -149.49240551698477,
  "url": "http://www.nytimes.com/2014/02/28/us/alaska-ballot-issues-set-on-wages-and-marijuana.html",
  "date": "2014-02-28T00:00:00Z"
},
{
  "title": "The Reward Comes After the Storm",
  "body": "Deep in Alaska, the adventurous snowboarders had to shift their focus from filming to surviving a storm. After 12 days in their tents, they quickly made up for lost time.",
  "location": "Alaska",
  "lat": 64.19633429803328,
  "lng": -149.49574419677214,
  "url": "http://www.nytimes.com/video/sports/100000002736131/the-reward-comes-after-the-storm.html",
  "date": "2014-02-27T10:35:37Z"
},
{
  "title": "Pivotal Point Is Seen as More States Consider Legalizing Marijuana",
  "body": "A little over a year after Colorado and Washington made the drug legal, more than half the states are considering decriminalizing or legalizing it for medical or recreational use.",
  "location": "Florida",
  "lat": 27.661641372500437,
  "lng": -81.51820611732533,
  "url": "http://www.nytimes.com/2014/02/27/us/momentum-is-seen-as-more-states-consider-legalizing-marijuana.html",
  "date": "2014-02-27T00:00:00Z"
},
{
  "title": "Mike Stepovich, Who Led Alaska to Statehood, Dies at 94",
  "body": "Mr. Stepovich was the last presidentially appointed governor of the Territory of Alaska and also helped lobby Congress for statehood.",
  "location": "Alaska",
  "lat": 64.20387767993222,
  "lng": -149.49256416667143,
  "url": "http://www.nytimes.com/2014/02/20/us/mike-stepovich-led-alaska-to-statehood-dies-at-94.html",
  "date": "2014-02-20T00:00:00Z"
},
{
  "title": "Video: Skier Flirts With Danger, and Almost Pays",
  "body": "In this episode of Teton Gravity Research’s “Behind The Line,” professional skiers Todd Ligare and others discover a technical line in Alaska that requires jumping two crevasses.",
  "location": "Alaska",
  "lat": 64.19880255727945,
  "lng": -149.49452496582524,
  "url": "http://www.nytimes.com/2014/01/23/sports/skiing/video-skier-flirts-with-danger-and-almost-pays.html",
  "date": "2014-01-23T00:00:00Z"
},
{
  "title": "Skier Flirts With Danger",
  "body": "In this episode of Teton Gravity Research’s “Behind The Line,” professional skiers Todd Ligare and others discover a technical line in Alaska that requires jumping two crevasses.",
  "location": "Alaska",
  "lat": 64.20359093254389,
  "lng": -149.49543811775794,
  "url": "http://www.nytimes.com/video/sports/100000002664987/skier-flirts-with-danger.html",
  "date": "2014-01-22T14:08:03Z"
},
{
  "title": "Sled Dog Days",
  "body": "A look at sled dog racing, perhaps one of the first extreme sports, through the lens of the Times photography archive.",
  "location": "Alaska",
  "lat": 64.1990971090045,
  "lng": -149.4918954857578,
  "url": "http://www.nytimes.com/2014/01/15/sports/historical-dog-sledding-photos-from-alaska-michigan-new-hampshire.html",
  "date": "2014-01-15T00:00:00Z"
},
{
  "title": "Video: Heli Pilot and Skiers Redefine What’s Possible",
  "body": "For some professional skiers, helicopter pilots have emerged as essential partners. One such pilot has come to specialize in helping skiers reach new terrain in Alaska.",
  "location": "Alaska",
  "lat": 64.1930263997482,
  "lng": -149.49026725296017,
  "url": "http://www.nytimes.com/2014/01/09/sports/video-heli-pilot-and-skiers-redefine-whats-possible.html",
  "date": "2014-01-09T00:00:00Z"
},
{
  "title": "Redefining What’s Possible for Skiers",
  "body": "For some professional skiers, helicopter pilots have emerged as essential partners. One such pilot, Tighe Daugherty, has come to specialize in helping skiers reach new terrain in Alaska.",
  "location": "Alaska",
  "lat": 64.19561603871776,
  "lng": -149.49473275065708,
  "url": "http://www.nytimes.com/video/2014/01/08/sports/100000002639231/redefining-whats-possible.html",
  "date": "2014-01-08T15:17:07Z"
},
{
  "title": "Video: Pro Skier Hacks Into Challenging Run",
  "body": "In this episode of Teton Gravity Research’s “Behind The Line,” professional skier Sage Cattabriga-Alosa has to tunnel through a school bus-sized mass of snow to access a ski run in Alaska.",
  "location": "Alaska",
  "lat": 64.1990223756266,
  "lng": -149.49548805785514,
  "url": "http://www.nytimes.com/2013/12/27/sports/video-pro-skier-hacks-into-death-defying-run.html",
  "date": "2013-12-27T00:00:00Z"
},
{
  "title": "Arizona Did Us All a Favor",
  "body": "Recent legal movements are fraught with trouble for a country founded on the idea that church does not dictate to state.",
  "location": "Arizona",
  "lat": 34.042668635291186,
  "lng": -111.09321600554031,
  "url": "http://www.nytimes.com/2014/03/02/opinion/sunday/egan-arizona-did-us-all-a-favor.html",
  "date": "2014-03-02T00:00:00Z"
},
{
  "title": "Tussling Over Ukraine; Gains and Grave Setbacks for Gay Rights",
  "body": "The promise and perils of change were evident in the bitter global struggle over equal right for same sex couples.",
  "location": "Arizona",
  "lat": 34.04668429658592,
  "lng": -111.08526524655893,
  "url": "http://www.nytimes.com/2014/03/02/opinion/sunday/tussling-over-ukraine-gains-and-grave-setbacks-for-gay-rights.html",
  "date": "2014-03-02T00:00:00Z"
},
{
  "title": "Not Public Financing’s Fault",
  "body": "The Brennan Center for Justice says Arizona\u0026#8217;s Clean Elections Law did not foster extremism.",
  "location": "Arizona",
  "lat": 34.04937432099178,
  "lng": -111.09246446446093,
  "url": "http://www.nytimes.com/2014/03/01/opinion/not-public-financings-fault.html",
  "date": "2014-03-01T00:00:00Z"
},
{
  "title": "Arizona Bill Allowing Refusal of Service to Gays Stirred Alarm in the G.O.P.",
  "body": "Establishment Republican leaders worried about identifying their party with polarizing social issues at a time when they see the prospect of big gains in congressional elections on economic issues.",
  "location": "Arizona",
  "lat": 34.04310283573636,
  "lng": -111.09824043767532,
  "url": "http://www.nytimes.com/2014/02/28/us/arizona-bill-allowing-refusal-of-service-to-gays-stirred-alarm-in-the-gop.html",
  "date": "2014-02-28T00:00:00Z"
},
{
  "title": "Arizona Democrat Won’t Seek Re-election to House",
  "body": "Representative Ed Pastor, the first Hispanic elected to Congress from Arizona, said he would not seek a 12th term.",
  "location": "Arizona",
  "lat": 34.05499825538701,
  "lng": -111.0909972847687,
  "url": "http://www.nytimes.com/2014/02/28/us/politics/arizona-democrat-wont-seek-re-election-to-house.html",
  "date": "2014-02-28T00:00:00Z"
},
{
  "title": "Day After Governor’s Veto, Arizona Takes Up Abortion Clinics",
  "body": "Despite being criticized by Gov. Jan Brewer for failing to act on her legislative priorities, the House turned to legislation that would permit surprise inspections of abortion clinics.",
  "location": "Arizona",
  "lat": 34.045548392217334,
  "lng": -111.0892660517386,
  "url": "http://www.nytimes.com/2014/02/28/us/arizona-governor-praised-for-veto-of-antigay-bill.html",
  "date": "2014-02-28T00:00:00Z"
},
{
  "title": "Times Minute | The Human Rights Report",
  "body": "Secretary of State John Kerry on the human rights report. Also on the Minute, Arizona’s new conservative agenda and controversy in SeaWorld’s legal battle.",
  "location": "Arizona",
  "lat": 34.048746089075955,
  "lng": -111.10180401920003,
  "url": "http://www.nytimes.com/news/minute/2014/02/27/times-minute-the-human-rights-report/",
  "date": "2014-02-27T18:11:51Z"
},
{
  "title": "Times Minute | The Human Rights Report",
  "body": "Secretary of State John Kerry on the human rights report. Also on the Minute, Arizona\u0027s new conservative agenda and controversy in Seaworld\u0027s legal battle.",
  "location": "Arizona",
  "lat": 34.05084348097998,
  "lng": -111.08953094095914,
  "url": "http://www.nytimes.com/video/multimedia/100000002739833/times-minute-the-human-rights-report.html",
  "date": "2014-02-27T18:10:25Z"
},
{
  "title": "Discussions of Arizona Governor’s Veto",
  "body": "Reaction to Gov. Jan Brewer’s veto of a bill that would have allowed refusal of service to gay men and lesbians.",
  "location": "Arizona",
  "lat": 34.05375736277109,
  "lng": -111.09345504274768,
  "url": "http://www.nytimes.com/video/us/100000002739319/discussions-of-arizona-governors-veto.html",
  "date": "2014-02-27T16:43:47Z"
},
{
  "title": "The State of Arizona",
  "body": "What went down over a state bill and a governor\u0026#8217;s veto was weird, but it means something.",
  "location": "Arizona",
  "lat": 34.0556525206374,
  "lng": -111.09250723987628,
  "url": "http://www.nytimes.com/2014/02/27/opinion/collins-the-state-of-arizona.html",
  "date": "2014-02-27T00:00:00Z"
},
{
  "title": "Arkansas: Medicaid Rejected Again",
  "body": "The State House for a second day in a row defeated a compromise plan to expand Medicaid by using federal Medicaid funds to buy private insurance for low-income residents.",
  "location": "Arkansas",
  "lat": 35.19733615798464,
  "lng": -91.83556995573042,
  "url": "http://www.nytimes.com/2014/02/20/us/arkansas-medicaid-rejected-again.html",
  "date": "2014-02-20T00:00:00Z"
},
{
  "title": "Arkansas: Compromise on Medicaid Is Held Up",
  "body": "The Arkansas House failed Tuesday to renew the state’s compromise Medicaid expansion plan, leaving in limbo a program heralded as a model for Republican-leaning states to implement the federal health overhaul.",
  "location": "Arkansas",
  "lat": 35.19972761908021,
  "lng": -91.83003644653525,
  "url": "http://www.nytimes.com/2014/02/19/us/arkansas-compromise-on-medicaid-is-held-up.html",
  "date": "2014-02-19T00:00:00Z"
},
{
  "title": "Arkansas: Judge Blocks Executions While Drug Issue Is Weighed",
  "body": "A group of death row inmates won a court judgment Friday that temporarily blocks executions in Arkansas and says the state Legislature gave too much authority to the Correction Department when it designated the agency director as the person who picks...",
  "location": "Arkansas",
  "lat": 35.20121189439734,
  "lng": -91.83665046656931,
  "url": "http://www.nytimes.com/2014/02/15/us/arkansas-judge-blocks-executions-while-drug-issue-is-weighed.html",
  "date": "2014-02-15T00:00:00Z"
},
{
  "title": "Medicaid Expansion, Red-State Style",
  "body": "Using public Medicaid dollars to buy private insurance policies makes sense, politically and substantively.",
  "location": "Arkansas",
  "lat": 35.20590325878946,
  "lng": -91.82656122920005,
  "url": "http://www.nytimes.com/2014/02/12/opinion/medicaid-expansion-red-state-style.html",
  "date": "2014-02-12T00:00:00Z"
},
{
  "title": "In Arkansas, ‘Private Option’ Medicaid Plan Could Be Derailed",
  "body": "Facing pressure from conservative challengers, several lawmakers who supported a plan to expand health insurance for the poor could change course.",
  "location": "Arkansas",
  "lat": 35.202096276438205,
  "lng": -91.83237474764363,
  "url": "http://www.nytimes.com/2014/02/11/us/politics/in-arkansas-private-option-medicaid-plan-could-be-derailed.html",
  "date": "2014-02-11T00:00:00Z"
},
{
  "title": "Crystal Bridges Museum Buys a Frank Lloyd Wright House",
  "body": "A Frank Lloyd Wright House in New Jersey will be sent to the Crystal Bridges Museum of American Art in Arkansas and reconstructed there.",
  "location": "New Jersey",
  "lat": 40.054379678415486,
  "lng": -74.40342775883127,
  "url": "http://artsbeat.blogs.nytimes.com/2014/01/20/crystal-bridges-museum-buys-a-frank-lloyd-wright-house/",
  "date": "2014-01-20T13:45:42Z"
},
{
  "title": "Arkansas Town’s New Owner Has Visions of Its Renaissance",
  "body": "For 125 years, the Lee Wilson family owned Wilson, Ark., building a fortune from farming. Its new owner, however, seeks to transform the town into a beacon of art, culture and education.",
  "location": "Arkansas",
  "lat": 35.19853588802761,
  "lng": -91.82886976892556,
  "url": "http://www.nytimes.com/2014/01/20/us/arkansas-towns-new-owner-has-visions-of-its-renaissance.html",
  "date": "2014-01-20T00:00:00Z"
},
{
  "title": "With Ruling, Funds to Aid Desegregation in Arkansas Are Ended",
  "body": "Payments from Arkansas to help fund desegregation efforts in three school districts will be phased out under a settlement that was approved.",
  "location": "Arkansas",
  "lat": 35.20637785613112,
  "lng": -91.8309804688973,
  "url": "http://www.nytimes.com/2014/01/14/us/judge-approves-desegregation-plan-in-little-rock.html",
  "date": "2014-01-14T00:00:00Z"
},
{
  "title": "Arkansas: Lieutenant Governor Quitting Under Pressure",
  "body": "Lt. Gov. Mark Darr said Friday that he would leave office on Feb. 1, giving in to pressure from Democrats and fellow Republicans who said his impeachment was inevitable over ethics violations tied to his campaign and office spending.",
  "location": "Arkansas",
  "lat": 35.20432643428688,
  "lng": -91.82905860991961,
  "url": "http://www.nytimes.com/2014/01/11/us/politics/arkansas-lieutenant-governor-quitting-under-pressure.html",
  "date": "2014-01-11T00:00:00Z"
},
{
  "title": "The Execution of David O. Dodd",
  "body": "Was the 17-year-old Arkansas boy a spy, or just unlucky?",
  "location": "Arkansas",
  "lat": 35.200181888049165,
  "lng": -91.82693004155587,
  "url": "http://opinionator.blogs.nytimes.com/2014/01/10/the-execution-of-david-o-dodd/",
  "date": "2014-01-10T11:30:53Z"
},
{
  "title": "Rain in California Brings Relief, and New Problems",
  "body": "The downpours, as welcome as they were, will not rescue the state from its historically bad drought, officials said.",
  "location": "California",
  "lat": 36.7814057358721,
  "lng": -119.41613044477037,
  "url": "http://www.nytimes.com/2014/03/01/us/winter-storm-brings-rain-and-new-troubles-to-a-dry-california.html",
  "date": "2014-03-01T00:00:00Z"
},
{
  "title": "Heavy Rains Pound Southern California",
  "body": "A second winter storm this week swept into California, bringing more rain than this drought-hit state has had in months.",
  "location": "California",
  "lat": 36.777902866617005,
  "lng": -119.42106931968831,
  "url": "http://www.nytimes.com/video/us/100000002742224/heavy-rains-pound-southern-california.html",
  "date": "2014-02-28T17:49:04Z"
},
{
  "title": "Brown Seeks Fourth Term as Governor of California",
  "body": "Gov. Jerry Brown, 75, is already the longest-serving governor in the state’s history.",
  "location": "California",
  "lat": 36.76951886624199,
  "lng": -119.42220400657857,
  "url": "http://www.nytimes.com/2014/02/28/us/brown-to-run-for-re-election-as-california-governor.html",
  "date": "2014-02-28T00:00:00Z"
},
{
  "title": "Chris Lehane\u0027s Political Theater",
  "body": "Performance politics is Chris Lehane’s specialty.",
  "location": "California",
  "lat": 36.784840658387395,
  "lng": -119.41838094829343,
  "url": "http://6thfloor.blogs.nytimes.com/2014/02/27/chris-lehanes-political-theater/",
  "date": "2014-02-27T18:33:39Z"
},
{
  "title": "Tesla Plans $5 Billion Battery Factory for Mass-Market Electric Car",
  "body": "Tesla, which markets a $70,000-plus electric sedan, took aim at the broader market in announcing a way to make the batteries that power the cars cheaper.",
  "location": "California",
  "lat": 36.77925794183861,
  "lng": -119.42023202817298,
  "url": "http://www.nytimes.com/2014/02/27/automobiles/tesla-plans-5-billion-battery-factory-for-mass-market-electric-car.html",
  "date": "2014-02-27T00:00:00Z"
},
{
  "title": "Lego Pieces Together a New Act ",
  "body": "Legoland in Carlsbad, Calif., has a new attraction inspired by the hit “The Lego Movie.”",
  "location": "California",
  "lat": 36.77529627773377,
  "lng": -119.41820043727328,
  "url": "http://intransit.blogs.nytimes.com/2014/02/26/lego-pieces-together-a-new-act/",
  "date": "2014-02-26T15:29:29Z"
},
{
  "title": "Times Minute | Childhood Obesity Drops",
  "body": "Also on the Minute, why Clinton is a campaign staple and a push to ban plastic bags in California.",
  "location": "Kentucky",
  "lat": 37.843766258322006,
  "lng": -84.26581465658649,
  "url": "http://www.nytimes.com/video/multimedia/100000002735168/times-minute-childhood-obesity-drops.html",
  "date": "2014-02-26T05:47:14Z"
},
{
  "title": "Unknown Form of Paralysis Strikes California Children",
  "body": "The rare, polio-like disease that has afflicted more than a dozen children who have developed paralysis in one or more limbs is still being investigated.",
  "location": "California",
  "lat": 36.7799689617206,
  "lng": -119.42081175612094,
  "url": "http://www.nytimes.com/2014/02/26/health/unknown-form-of-paralysis-strikes-california-children.html",
  "date": "2014-02-26T00:00:00Z"
},
{
  "title": "California: NASA Aids Drought War",
  "body": "NASA scientists have begun deploying satellites and other technology to help California water officials assess the state’s record drought.",
  "location": "California",
  "lat": 36.778203875834215,
  "lng": -119.41237084921285,
  "url": "http://www.nytimes.com/2014/02/26/us/california-nasa-aids-drought-war.html",
  "date": "2014-02-26T00:00:00Z"
},
{
  "title": "California: Dog Walkers Find Millions in Uncirculated Gold Coins",
  "body": "A Northern California couple out walking their dog on their property stumbled across $10 million in rare gold coins buried in the shadow of an old tree.",
  "location": "California",
  "lat": 36.77426664150493,
  "lng": -119.4156951525428,
  "url": "http://www.nytimes.com/2014/02/26/us/california-dog-walkers-find-millions-in-uncirculated-gold-coins.html",
  "date": "2014-02-26T00:00:00Z"
},
{
  "title": "Gardner to Oppose Udall, Complicating Democrats’ Senate Hopes",
  "body": "An unexpected decision in Colorado by Cory Gardner, a two-term Republican congressman, was unwelcome news for Democrats who hoped Mark Udall’s seat would be safe.",
  "location": "Colorado",
  "lat": 39.546452053139014,
  "lng": -105.7775667406966,
  "url": "http://www.nytimes.com/2014/02/27/us/politics/gardner-to-oppose-udall-complicating-democrats-senate-hopes.html",
  "date": "2014-02-27T00:00:00Z"
},
{
  "title": "Earth, Wind and Fire",
  "body": "After a devastating inferno in a Colorado canyon, a couple starts over, high up a hill.",
  "location": "Boulder (Colo)",
  "lat": 40.019425913095596,
  "lng": -105.26400889643554,
  "url": "http://www.nytimes.com/2014/02/27/greathomesanddestinations/earth-wind-and-fire.html",
  "date": "2014-02-27T00:00:00Z"
},
{
  "title": "Times Minute | Profiting From Marijuana",
  "body": "Also on the Minute, the roots of the violence in Ukraine\u0027s opposition groups and watch for record online viewership for today\u0027s hockey match between the U.S. and Canada.",
  "location": "Colorado",
  "lat": 39.552439829440615,
  "lng": -105.78585999151288,
  "url": "http://www.nytimes.com/video/multimedia/100000002725709/times-minute-profiting-from-marijuana.html",
  "date": "2014-02-21T05:52:47Z"
},
{
  "title": "Colorado Expects to Reap Tax Bonanza From Legal Marijuana Sales",
  "body": "The state predicts $100 million a year in revenues, and a budget proposal from Gov. John W. Hickenlooper estimates that the industry could reach $1 billion in sales in the next fiscal year.",
  "location": "Colorado",
  "lat": 39.546807505379256,
  "lng": -105.78380905481058,
  "url": "http://www.nytimes.com/2014/02/21/us/colorado-expects-to-reap-tax-bonanza-from-legal-marijuana-sales.html",
  "date": "2014-02-21T00:00:00Z"
},
{
  "title": "Colorado Expects to Reap Tax Bonanza on Legal Marijuana Sales",
  "body": "The state predicts $100 million a year in revenues, and a budget proposal from Gov. John W. Hickenlooper estimates that the industry could reach $1 billion in sales in the next fiscal year.",
  "location": "Colorado",
  "lat": 39.54890275506886,
  "lng": -105.77874010952503,
  "url": "http://www.nytimes.com/2014/02/21/us/colorado-expects-to-reap-tax-bonanza-on-legal-marijuana-sales.html",
  "date": "2014-02-21T00:00:00Z"
},
{
  "title": "My Night in Solitary",
  "body": "Driving prisoners crazy won\u0026#8217;t make the public safer.",
  "location": "Colorado",
  "lat": 39.554283149134065,
  "lng": -105.77463698761214,
  "url": "http://www.nytimes.com/2014/02/21/opinion/my-night-in-solitary.html",
  "date": "2014-02-21T00:00:00Z"
},
{
  "title": "Small Towns in Southwest Fear Loss of Cherished Train Line",
  "body": "The Southwest Chief route, a lifeline to rural communities, is in danger if Amtrak cannot persuade three of the states it runs through to help fund track repairs and maintenance.",
  "location": "New Mexico",
  "lat": 34.52359057117506,
  "lng": -105.8707544496652,
  "url": "http://www.nytimes.com/2014/02/18/us/small-towns-in-southwest-fear-loss-of-cherished-train-line.html",
  "date": "2014-02-18T00:00:00Z"
},
{
  "title": "We Need Proof on Marijuana",
  "body": "Where are the studies showing that it can treat epilepsy?",
  "location": "Colorado",
  "lat": 39.55463584136359,
  "lng": -105.78860007434301,
  "url": "http://www.nytimes.com/2014/02/13/opinion/we-need-proof-on-marijuana.html",
  "date": "2014-02-13T00:00:00Z"
},
{
  "title": "‘Aid in Dying’ Movement Takes Hold in Some States",
  "body": "Advocates of the practice, who shun the term “assisted suicide,” say they believe that as baby boomers watch frail parents suffer, support for their movement will grow further.",
  "location": "Vermont",
  "lat": 44.56523783634792,
  "lng": -72.57412109002902,
  "url": "http://www.nytimes.com/2014/02/08/us/easing-terminal-patients-path-to-death-legally.html",
  "date": "2014-02-08T00:00:00Z"
},
{
  "title": "Snacks Laced With Marijuana Raise Concerns",
  "body": "The popularity of edible marijuana has alarmed parents’ groups and others who say the highly concentrated snacks are increasingly landing in the hands of children too young to know the difference between pot brownies and regular ones.",
  "location": "Colorado",
  "lat": 39.55397801075804,
  "lng": -105.78327016591474,
  "url": "http://www.nytimes.com/2014/02/01/us/snacks-laced-with-marijuana-raise-concerns.html",
  "date": "2014-02-01T00:00:00Z"
},
{
  "title": "Slaking a Thirst for Beers at Craft Breweries",
  "body": "Several small-batch breweries have opened in Connecticut within the last two years, aided by a change in state law that allows direct sales to consumers.",
  "location": "Connecticut",
  "lat": 41.605509402975905,
  "lng": -73.08533518476192,
  "url": "http://www.nytimes.com/2014/03/02/nyregion/slaking-a-thirst-for-beers-at-craft-breweries.html",
  "date": "2014-03-02T00:00:00Z"
},
{
  "title": "Winning Lottery Numbers for Feb. 28, 2014",
  "body": "Lottery numbers for New York, New Jersey and Connecticut.",
  "location": "Connecticut",
  "lat": 41.607423978764594,
  "lng": -73.08579166269537,
  "url": "http://www.nytimes.com/2014/03/01/nyregion/winning-lottery-numbers-for-feb-28-2014.html",
  "date": "2014-03-01T00:00:00Z"
},
{
  "title": "Winning Lottery Numbers for Feb. 27, 2014",
  "body": "Lottery numbers for New York, New Jersey and Connecticut.",
  "location": "New York State",
  "lat": 43.30199734186135,
  "lng": -74.22102189247427,
  "url": "http://www.nytimes.com/2014/02/28/nyregion/winning-lottery-numbers-for-feb-27-2014.html",
  "date": "2014-02-28T00:00:00Z"
},
{
  "title": "Charles Ives’s Workroom, Pencil Shavings Preserved",
  "body": "The austere workroom from the 1910s home of the modernist composer Charles Ives in West Redding, Conn., has been transported to Manhattan.",
  "location": "Connecticut",
  "lat": 41.59776822207359,
  "lng": -73.08415451928101,
  "url": "http://www.nytimes.com/2014/02/28/arts/design/charles-ivess-workroom-pencil-shavings-preserved.html",
  "date": "2014-02-28T00:00:00Z"
},
{
  "title": "Winning Lottery Numbers for Feb. 26, 2014",
  "body": "Lottery numbers for New York, New Jersey and Connecticut.",
  "location": "Connecticut",
  "lat": 41.60461121448568,
  "lng": -73.09223818264992,
  "url": "http://www.nytimes.com/2014/02/27/nyregion/winning-lottery-numbers-for-feb-26-2014.html",
  "date": "2014-02-27T00:00:00Z"
},
{
  "title": "Winning Lottery Numbers for Feb. 25, 2014",
  "body": "Lottery numbers for New York, New Jersey and Connecticut.",
  "location": "Connecticut",
  "lat": 41.60822203189667,
  "lng": -73.08894047651738,
  "url": "http://www.nytimes.com/2014/02/26/nyregion/winning-lottery-numbers-for-feb-25-2014.html",
  "date": "2014-02-26T00:00:00Z"
},
{
  "title": "Winning Lottery Numbers for Feb. 24, 2014",
  "body": "Lottery numbers for New York, New Jersey and Connecticut.",
  "location": "Connecticut",
  "lat": 41.599406995156066,
  "lng": -73.08762641729493,
  "url": "http://www.nytimes.com/2014/02/25/nyregion/winning-lottery-numbers-for-feb-24-2014.html",
  "date": "2014-02-25T00:00:00Z"
},
{
  "title": "Connecticut Plans to Market Health Exchange Expertise",
  "body": "The next chapter in an insurance marketplace’s success story: offering technology and services to other states.",
  "location": "Connecticut",
  "lat": 41.6042460715223,
  "lng": -73.08847301876445,
  "url": "http://www.nytimes.com/2014/02/25/us/connecticut-plans-to-market-health-exchange-expertise.html",
  "date": "2014-02-25T00:00:00Z"
},
{
  "title": "Winning Lottery Numbers for Feb. 23, 2014",
  "body": "Lottery numbers for New York, New Jersey and Connecticut.",
  "location": "New York State",
  "lat": 43.30020933930384,
  "lng": -74.21586661058852,
  "url": "http://www.nytimes.com/2014/02/24/nyregion/winning-lottery-numbers-for-feb-23-2014.html",
  "date": "2014-02-24T00:00:00Z"
},
{
  "title": "Winning Lottery Numbers for Feb. 22, 2014",
  "body": "Lottery numbers for New York, New Jersey and Connecticut.",
  "location": "Connecticut",
  "lat": 41.600466333037915,
  "lng": -73.08915755842027,
  "url": "http://www.nytimes.com/2014/02/23/nyregion/winning-lottery-numbers-for-feb-22-2014.html",
  "date": "2014-02-23T00:00:00Z"
},
{
  "title": "Renting Judges for Secret Rulings",
  "body": "Delaware courts would resolve business disputes behind closed doors.",
  "location": "Delaware",
  "lat": 38.910250103294175,
  "lng": -75.52735796303895,
  "url": "http://www.nytimes.com/2014/03/01/opinion/renting-judges-for-secret-rulings.html",
  "date": "2014-03-01T00:00:00Z"
},
{
  "title": "The Business of Paid Family Leave ",
  "body": "Extending the disability-insurance model to help defray the costs of care for children, elderly and sick family members could help employees, with minimal impact on business, an economist writes.",
  "location": "California",
  "lat": 36.77713129217131,
  "lng": -119.41366814882645,
  "url": "http://economix.blogs.nytimes.com/2014/01/27/the-business-of-paid-family-leave/",
  "date": "2014-01-27T00:01:21Z"
},
{
  "title": "Wheelies: The Vezel View Edition",
  "body": "Honda says it will bring its Vezel compact crossover to the United States; Senator Tom Carper of Delaware says Fisker won’t build cars there.",
  "location": "Delaware",
  "lat": 38.91100770963303,
  "lng": -75.52207427454488,
  "url": "http://www.nytimes.com/2013/12/21/automobiles/wheelies-the-vezel-view-edition.html",
  "date": "2013-12-21T00:00:00Z"
},
{
  "title": "Delaware, Den of Thieves?",
  "body": "States shouldn’t be allowed to register anonymous shell companies, which can be used for underground financing, tax evasion and other bad deeds.",
  "location": "Nevada",
  "lat": 38.801824661395244,
  "lng": -116.41958101967393,
  "url": "http://www.nytimes.com/2013/11/02/opinion/delaware-den-of-thieves.html",
  "date": "2013-11-02T00:00:00Z"
},
{
  "title": "Appeals Court Throws Out Confidential Arbitration in Delaware",
  "body": "The state’s Chancery Court had tried to offer cost-effective options for resolving business disputes.",
  "location": "Delaware",
  "lat": 38.90704346278214,
  "lng": -75.53382843226886,
  "url": "http://dealbook.nytimes.com/2013/10/23/appeals-court-throws-out-confidential-arbitration-in-delaware/",
  "date": "2013-10-23T15:59:52Z"
},
{
  "title": "Pictures of the Day: Delaware and Elsewhere",
  "body": "Photos from Delaware, Syria, Pakistan and Bangladesh.",
  "location": "Bangladesh",
  "lat": 23.686767841886915,
  "lng": 90.35669115756139,
  "url": "http://lens.blogs.nytimes.com/2013/10/09/pictures-of-the-day-delaware-and-elsewhere/",
  "date": "2013-10-09T16:28:59Z"
},
{
  "title": "Delaware Judge Rules for Sirius Board in Shareholder Suit",
  "body": "The board of Sirius XM Radio did not breach its duty to shareholders by allowing a takeover by Liberty Media without demanding a premium for the stock, the judge ruled.",
  "location": "Delaware",
  "lat": 38.91410151259701,
  "lng": -75.53533287563756,
  "url": "http://www.nytimes.com/2013/09/28/business/delaware-judge-rules-for-sirius-board-in-shareholder-suit.html",
  "date": "2013-09-28T00:00:00Z"
},
{
  "title": "Dogfish Head Brewery to Open an Inn",
  "body": "The Dogfish Head Brewery plans to open a hotel called the Dogfish Inn in Lewes, Del., next year.",
  "location": "Delaware",
  "lat": 38.90610677403946,
  "lng": -75.53240012115796,
  "url": "http://intransit.blogs.nytimes.com/2013/09/27/dogfish-head-brewery-to-open-an-inn/",
  "date": "2013-09-27T16:00:08Z"
},
{
  "title": "Delaware Seeks to Steer the Poor to Top Colleges",
  "body": "The state plans to use application fee waivers and other information to address a pattern that limits social mobility.",
  "location": "Delaware",
  "lat": 38.91272316568149,
  "lng": -75.5255764388457,
  "url": "http://www.nytimes.com/2013/09/19/us/delaware-seeks-to-steer-the-poor-to-top-colleges.html",
  "date": "2013-09-19T00:00:00Z"
},
{
  "title": "Biden\u0027s Son to Be Released From Houston Hospital",
  "body": "Beau Biden, the son of Vice President Joseph R. Biden Jr., is scheduled to be released from a Houston hospital on Thursday after undergoing unspecified tests, according to a statement from the vice president’s office.",
  "location": "Delaware",
  "lat": 38.910984684881846,
  "lng": -75.53657981011754,
  "url": "http://thecaucus.blogs.nytimes.com/2013/08/21/bidens-son-to-be-released-from-houston-hospital/",
  "date": "2013-08-21T18:33:09Z"
},
{
  "title": "Senator Expresses Concerns About Nuclear-Waste Tanks",
  "body": "Ron Wyden of Oregon contends that even the newest and sturdiest of tanks at a Washington State site show some of the same construction problems as one that began leaking in late 2012.",
  "location": "Oregon",
  "lat": 43.80689774554815,
  "lng": -120.5543711678138,
  "url": "http://www.nytimes.com/2014/03/02/us/senator-expresses-concerns-about-nuclear-waste-tanks.html",
  "date": "2014-03-02T00:00:00Z"
},
{
  "title": "On the Market in New York City",
  "body": "A tour of homes on the Upper East Side; the Garment District; and Lefferts Manor.",
  "location": "Upper East Side (Manhattan, NY)",
  "lat": 40.77845083612766,
  "lng": -73.94814095733476,
  "url": "http://www.nytimes.com/2014/03/02/realestate/on-the-market-in-new-york-city.html",
  "date": "2014-03-02T00:00:00Z"
},
{
  "title": "Strong, Silent Types",
  "body": "These stories center on a gritty corner of British Columbia.",
  "lat": 0.0,
  "lng": 0.0,
  "url": "http://www.nytimes.com/2014/03/02/books/review/once-you-break-a-knuckle-by-d-w-wilson.html",
  "date": "2014-03-02T00:00:00Z"
},
{
  "title": "Letters: ‘The Sixth Extinction,’ and More",
  "body": "Readers respond to reviews of Elizabeth Kolbert’s “Sixth Extinction,” Shai Held’s “Abraham Joshua Heschel” and more.",
  "lat": 0.0,
  "lng": 0.0,
  "url": "http://www.nytimes.com/2014/03/02/books/review/letters-the-sixth-extinction-and-more.html",
  "date": "2014-03-02T00:00:00Z"
},
{
  "title": "A Playwright’s Status Report",
  "body": "Terrence McNally revisits the evolving attitudes toward same-sex relationships in “Mothers and Sons,” a sequel of sorts to “Andre’s Mother.”",
  "lat": 0.0,
  "lng": 0.0,
  "url": "http://www.nytimes.com/2014/03/02/theater/mcnallys-mothers-and-sons-gauges-a-changed-america.html",
  "date": "2014-03-02T00:00:00Z"
},
{
  "title": "Bringing the Happy",
  "body": "The sunny Pharrell Williams, one of the most transformative music figures of the last year, is back with “G I R L,” his second album as a solo performer.",
  "lat": 0.0,
  "lng": 0.0,
  "url": "http://www.nytimes.com/2014/03/02/arts/music/pharrell-williams-takes-a-stand-on-cheery-musical-ground.html",
  "date": "2014-03-02T00:00:00Z"
},
{
  "title": "South Carolina Beats No. 17 Kentucky 72-67",
  "body": "Brenton Williams scored 24 points for South Carolina, and Kentucky coach John Calipari was ejected midway through the second half as the Gamecocks held off the 17th-ranked Wildcats 72-67 on Saturday night.",
  "lat": 0.0,
  "lng": 0.0,
  "url": "http://www.nytimes.com/aponline/2014/03/01/sports/ncaabasketball/ap-bkc-t25-kentucky-south-carolina.html",
  "date": "2014-03-01T20:56:40Z"
},
{
  "title": "Chapo\u0027s Rise: From Poor, Abused to Cartel Kingpin",
  "body": "It was nighttime in May of 1990, in the heyday of the cocaine boom across America. Twenty Mexican federal police officers and a handful of U.S. Customs agents, acting on a tip, descended on a stucco home on the edge of Agua Prieta, Mexico \u0026#8212; a...",
  "lat": 0.0,
  "lng": 0.0,
  "url": "http://www.nytimes.com/aponline/2014/03/01/us/ap-us-el-chapos-rise.html",
  "date": "2014-03-01T15:30:08Z"
},
{
  "title": "No. 4 South Carolina Ready for No. 10 Lady Vols",
  "body": "The lone regular-season matchup between No. 4 South Carolina and No. 10 Tennessee won\u0027t have any impact on the Southeastern Conference championship.",
  "lat": 0.0,
  "lng": 0.0,
  "url": "http://www.nytimes.com/aponline/2014/03/01/sports/ncaabasketball/ap-bkw-t25-tennessee-facing-gamecocks.html",
  "date": "2014-03-01T14:28:41Z"
},
{
  "title": "To See U.S. Wealth Gap, Look No Further Than Washington",
  "body": "President Barack Obama is making income inequality an issue in midterm elections, and proof of the gap between rich and poor is close at hand right outside the White House.",
  "lat": 0.0,
  "lng": 0.0,
  "url": "http://www.nytimes.com/reuters/2014/03/01/us/01reuters-usa-income-washington.html",
  "date": "2014-03-01T13:01:32Z"
},
{
  "title": "Pivotal Point Is Seen as More States Consider Legalizing Marijuana",
  "body": "A little over a year after Colorado and Washington made the drug legal, more than half the states are considering decriminalizing or legalizing it for medical or recreational use.",
  "location": "Florida",
  "lat": 27.668480102920984,
  "lng": -81.52273341585092,
  "url": "http://www.nytimes.com/2014/02/27/us/momentum-is-seen-as-more-states-consider-legalizing-marijuana.html",
  "date": "2014-02-27T00:00:00Z"
},
{
  "title": "Hope Springs, Again, for Yankees and Mets",
  "body": "With new faces and renewed optimism, the Yankees began training in Tampa, Fla., while the Mets opened their camp in Port St. Lucie, Fla.",
  "location": "Florida",
  "lat": 27.665453469867934,
  "lng": -81.5197628745149,
  "url": "http://www.nytimes.com/slideshow/2014/02/22/sports/baseball/spring-training.html",
  "date": "2014-02-22T00:00:00Z"
},
{
  "title": "Florida Self-Defense Law Complicated Jury’s Job in Michael Dunn Trial",
  "body": "The jurors in Dunn’s murder trial wrangled with knowing when lethal force is justified, where nothing is straightforward and perception counts as much as fact.",
  "location": "Florida",
  "lat": 27.671161771109478,
  "lng": -81.51431741467474,
  "url": "http://www.nytimes.com/2014/02/17/us/florida-self-defense-law-hung-over-jury-in-michael-dunn-trial.html",
  "date": "2014-02-17T00:00:00Z"
},
{
  "title": "Jury Reaches Partial Verdict in Florida Killing Over Loud Music",
  "body": "Michael Dunn, a white man who admitted shooting Jordan Davis, a black 17-year-old, was convicted of three counts of second-degree attempted murder, but not first-degree murder.",
  "location": "Florida",
  "lat": 27.657385851903435,
  "lng": -81.52019603609202,
  "url": "http://www.nytimes.com/2014/02/16/us/florida-killing-over-loud-music.html",
  "date": "2014-02-16T00:00:00Z"
},
{
  "title": "Paddling 2,500 Miles Around Florida",
  "body": "Justin Riney talks about what he did the year he spent exploring the state on a stand-up paddle board, from organizing trash cleanups to counting 183 alligators in a single day.",
  "location": "Florida",
  "lat": 27.666825272558665,
  "lng": -81.51712232161283,
  "url": "http://www.nytimes.com/2014/02/16/travel/paddling-2500-miles-around-florida.html",
  "date": "2014-02-16T00:00:00Z"
},
{
  "title": "Jeter Breaks News as Fans Await Glimpse of Tanaka",
  "body": "Fans and members of the news media gathered outside the Yankees’ minor league training complex in hopes of a Masahiro Tanaka sighting. Soon they were getting word of Derek Jeter’s retirement.",
  "location": "Florida",
  "lat": 27.67126571375472,
  "lng": -81.51492280043,
  "url": "http://www.nytimes.com/2014/02/13/sports/baseball/jeter-breaks-news-as-fans-await-glimpse-of-tanaka.html",
  "date": "2014-02-13T00:00:00Z"
},
{
  "title": "Man Arrested in Florida in New York Cockfighting Case",
  "body": "Moises Cruz, who authorities say was the supplier of a New York area cockfighting operation, was arrested in Florida.",
  "location": "Florida",
  "lat": 27.668352572845404,
  "lng": -81.51895874589559,
  "url": "http://www.nytimes.com/2014/02/13/nyregion/man-arrested-in-florida-in-new-york-cockfighting-case.html",
  "date": "2014-02-13T00:00:00Z"
},
{
  "title": "Browsing for Bargain Spring-Break Airfares",
  "body": "The Frugal Traveler runs fare searches for three upcoming break periods to tease out clues about when, and where, to fly for less.",
  "location": "Caribbean Area",
  "lat": 37.42455399483552,
  "lng": -122.07817886235286,
  "url": "http://www.nytimes.com/2014/02/12/travel/browsing-for-bargain-spring-break-airfares.html",
  "date": "2014-02-12T00:00:00Z"
},
{
  "title": "Florida Man Is Denied Bail in Killing at a Movie Theater",
  "body": "Curtis J. Reeves Jr., a retired Tampa police captain, was denied bail on charges of second-degree murder. He shot Chad Oulson, a man who was texting in a theater.",
  "location": "Wesley Chapel (Fla)",
  "lat": 28.171713483010187,
  "lng": -82.35213604711653,
  "url": "http://www.nytimes.com/2014/02/08/us/florida-man-is-denied-bail-in-killing-at-a-movie-theater.html",
  "date": "2014-02-08T00:00:00Z"
},
{
  "title": "Trial Brings New Scrutiny of Self-Defense Laws",
  "body": "While race is woven into the background of the Florida trial of a man who killed a black teenager, the case appears likely to focus more on the mechanics of the state’s self-defense laws and how juries apply them.",
  "location": "Jacksonville (Fla)",
  "lat": 30.330992579867324,
  "lng": -81.65187972799373,
  "url": "http://www.nytimes.com/2014/02/07/us/trial-brings-new-scrutiny-of-self-defense-laws.html",
  "date": "2014-02-07T00:00:00Z"
},
{
  "title": "Related Press Release",
  "body": "A Georgia man who fatally shot an Alzheimer’s patient he feared was breaking into his house will not be charged with a crime, a prosecutor said.",
  "location": "Georgia",
  "lat": 32.16921721081594,
  "lng": -82.89185731532677,
  "url": "http://www.nytimes.com/interactive/2014/03/01/us/georgia-press-release.html",
  "date": "2014-03-01T00:00:00Z"
},
{
  "title": "No Charges in Death of Alzheimer’s Patient Mistaken for Intruder",
  "body": "A Georgia man who fatally shot an Alzheimer\u0026#8217;s patient he feared was breaking into his house will not be charged with a crime, a prosecutor said.",
  "location": "Georgia",
  "lat": 32.15722773793809,
  "lng": -82.89349011949228,
  "url": "http://www.nytimes.com/2014/03/01/us/no-charges-in-death-of-alzheimers-patient-mistaken-for-intruder.html",
  "date": "2014-03-01T00:00:00Z"
},
{
  "title": "Times Minute | Heroin in New England",
  "body": "A town in Vermont fights back. Also on the Minute, Vladimir Putin\u0027s calculation in Ukraine and the power of prayer in the N.B.A.",
  "location": "Rutland (Vt)",
  "lat": 43.602749659736965,
  "lng": -72.97388272285917,
  "url": "http://www.nytimes.com/video/multimedia/100000002740270/times-minute-heroin-in-new-england.html",
  "date": "2014-02-28T06:18:24Z"
},
{
  "title": "As Ukraine Crisis Rumbles, Georgian Premier Visits U.S.",
  "body": "The prime minister of Georgia said Russia was putting pressure on his country, another former Soviet republic that is leaning toward the West.",
  "location": "Ukraine",
  "lat": 48.37865985813399,
  "lng": 31.163042495744907,
  "url": "http://www.nytimes.com/2014/02/27/world/europe/georgia-leader-visits-us.html",
  "date": "2014-02-27T00:00:00Z"
},
{
  "title": "Loan Program for Reactors Is Fizzling",
  "body": "At one point, $50 billion in federal loan guarantees were meant to cover nuclear projects, but a plant in Georgia may receive the only guarantees made.",
  "location": "Georgia",
  "lat": 32.15991377701462,
  "lng": -82.90705445719978,
  "url": "http://www.nytimes.com/2014/02/19/business/energy-environment/loan-program-for-reactors-is-fizzling.html",
  "date": "2014-02-19T00:00:00Z"
},
{
  "title": "Former Prime Minister of Georgia Convicted of Corruption",
  "body": "Ivane Merabishvili is the most senior official to be convicted in a series of seemingly politically motivated prosecutions that followed a change in government leadership in 2012.",
  "location": "Georgia (Georgian Republic)",
  "lat": 32.165513684272675,
  "lng": -82.89917195154078,
  "url": "http://www.nytimes.com/2014/02/18/world/europe/former-georgian-prime-minister-convicted-of-corruption.html",
  "date": "2014-02-18T00:00:00Z"
},
{
  "title": "Wheelies: The International Edge Edition",
  "body": "Ford says it will build its new Edge crossover near Toronto; Audi releases details of the S1 hot hatch it will unveil in Geneva next month.",
  "location": "Toronto (Ontario)",
  "lat": 43.66068345017884,
  "lng": -79.38515582619449,
  "url": "http://www.nytimes.com/2014/02/14/automobiles/wheelies-the-international-edge-edition.html",
  "date": "2014-02-14T00:00:00Z"
},
{
  "title": "Czar Vladimir\u0027s Illusions",
  "body": "While the Kremlin squanders Russia\u0027s wealth, Georgia, its once-impoverished neighbor, is thriving.",
  "location": "Moscow (Russia)",
  "lat": 55.75850744754145,
  "lng": 37.614378384594374,
  "url": "http://www.nytimes.com/2014/02/13/opinion/saakashvili-czar-vladimirs-illusions.html",
  "date": "2014-02-13T00:00:00Z"
},
{
  "title": "Storm Causes Traffic Chaos in North Carolina ",
  "body": "Widespread damage and power outages have been caused by an unusually strong ice storm in the South.",
  "location": "Atlanta (Ga)",
  "lat": 33.750561251136965,
  "lng": -84.38619084371612,
  "url": "http://thelede.blogs.nytimes.com/2014/02/12/scenes-from-the-historic-ice-storm-in-the-south/",
  "date": "2014-02-12T14:12:52Z"
},
{
  "title": "New Storm Has South Bracing for the Worst",
  "body": "Meteorologists say it is likely to paralyze Atlanta again and bring up to eight inches of snow to mountainous regions to the north and as much as an inch of ice to heavily populated parts of Georgia and South Carolina.",
  "location": "Georgia",
  "lat": 32.17214299792962,
  "lng": -82.90391754483385,
  "url": "http://www.nytimes.com/2014/02/11/us/new-storm-has-south-bracing-for-worst.html",
  "date": "2014-02-11T00:00:00Z"
},
{
  "title": "Buying Into Hawaii\u0027s Promises of Paradise",
  "body": "A photographer’s last trip with her terminally ill husband to Waikiki defined paradise for her as “a state of mind: an illusion embraced both skeptically and gratefully.”",
  "location": "Hawaii",
  "lat": 19.90266413006031,
  "lng": -155.5745796882721,
  "url": "http://lens.blogs.nytimes.com/2014/02/25/buying-into-hawaiis-promises-of-paradise/",
  "date": "2014-02-25T05:00:23Z"
},
{
  "title": "A Library for Obama First Needs an Address",
  "body": "A foundation is in place to begin the effort to create a presidential library with Barack Obama\u0026#8217;s name on it. Where it will be built remains unclear.",
  "location": "Hawaii",
  "lat": 19.898594634450475,
  "lng": -155.578492818897,
  "url": "http://www.nytimes.com/2014/02/01/us/a-library-for-obama-first-needs-an-address.html",
  "date": "2014-02-01T00:00:00Z"
},
{
  "title": "Hawaii and San Diego Among Sites Considered for America’s Cup",
  "body": "America’s Cup officials are looking at Hawaii, San Diego and other sites for sailing’s marquee regatta in August 2017.",
  "location": "Hawaii",
  "lat": 19.896990155487472,
  "lng": -155.58018374163504,
  "url": "http://www.nytimes.com/2014/01/26/sports/hawaii-and-san-diego-among-sites-considered-for-americas-cup.html",
  "date": "2014-01-26T00:00:00Z"
},
{
  "title": "Kirk Leads in Hawaii",
  "body": "A birdie on the final hole gave Chris Kirk the outright lead in the Sony Open in Honolulu. Kirk’s 65 gave him a one-shot lead over Harris English and Will Wilcox, a PGA Tour rookie.",
  "location": "Hawaii",
  "lat": 19.90004243370114,
  "lng": -155.58810801029924,
  "url": "http://www.nytimes.com/2014/01/12/sports/golf/kirk-leads-in-hawaii.html",
  "date": "2014-01-12T00:00:00Z"
},
{
  "title": "Hawaii Makes Its Case for Obama’s Library: Why Not Bring It to the Beach?",
  "body": "Some in Hawaii, eager to claim President Obama as their own, have mounted a well-organized campaign to encourage him to place at least part of his postpresidential operation in the state.",
  "location": "Hawaii",
  "lat": 19.89554750689833,
  "lng": -155.58110950072077,
  "url": "http://www.nytimes.com/2014/01/06/us/hawaii-makes-its-case-for-obamas-library-why-not-bring-it-to-the-beach.html",
  "date": "2014-01-06T00:00:00Z"
},
{
  "title": "Zach Johnson Leads in Hawaii",
  "body": "Zach Johnson relied on great wedge play and a few timely putts for a seven-under-par 66 to take a three-stroke lead after two rounds of the Tournament of Champions in Hawaii.",
  "location": "Hawaii",
  "lat": 19.898861875116506,
  "lng": -155.57561177470618,
  "url": "http://www.nytimes.com/2014/01/05/sports/golf/zach-johnson-leads-in-hawaii.html",
  "date": "2014-01-05T00:00:00Z"
},
{
  "title": "A Lonely Quest for Facts on Genetically Modified Crops",
  "body": "When a bill to ban genetically engineered crops on the island of Hawaii was introduced, doubts nagged at Greggor Ilagan, a councilman, about what the risks were, if any, of the crops.",
  "location": "Hawaii",
  "lat": 19.8922832106643,
  "lng": -155.58165076935018,
  "url": "http://www.nytimes.com/2014/01/05/us/on-hawaii-a-lonely-quest-for-facts-about-gmos.html",
  "date": "2014-01-05T00:00:00Z"
},
{
  "title": "For Obama, a Real and Rare Vacation in Hawaii",
  "body": "For the first time since President Obama took office and began making a regular Christmas sojourn to Hawaii, no urgent news broke while he was there.",
  "location": "Hawaii",
  "lat": 19.903132467979056,
  "lng": -155.58291726593546,
  "url": "http://www.nytimes.com/2014/01/05/us/politics/for-a-pressured-president-a-real-and-rare-vacation-in-hawaii.html",
  "date": "2014-01-05T00:00:00Z"
},
{
  "title": "Spieth Shares Lead in Hawaii",
  "body": "Jordan Spieth made a 12-foot birdie putt on the final hole for a seven-under 66 to share the lead after one round of the Tournament of Champions in Hawaii.",
  "location": "Hawaii",
  "lat": 19.895798628161888,
  "lng": -155.58824322326748,
  "url": "http://www.nytimes.com/2014/01/04/sports/golf/spieth-shares-lead-in-hawaii.html",
  "date": "2014-01-04T00:00:00Z"
},
{
  "title": "Visits With School Pals Are a Touchstone on President’s Trips to Hawaii",
  "body": "President Obama’s annual holiday trips to Hawaii include bonding time with the high school friends who have come to be known collectively as the Choom Gang.",
  "location": "Oahu (Hawaii)",
  "lat": 21.436637774219392,
  "lng": -157.9940063790268,
  "url": "http://www.nytimes.com/2014/01/04/us/politics/visits-with-school-pals-are-a-touchstone-on-presidents-trips-to-hawaii.html",
  "date": "2014-01-04T00:00:00Z"
},
{
  "title": "Idaho: Film Document of Animal Abuse Is Banned",
  "body": "Gov. C. L. (Butch) Otter on Friday signed a bill threatening anyone who secretly films animal abuse at agricultural facilities with a year in jail and a $5,000 fine.",
  "location": "Idaho",
  "lat": 44.07386949082949,
  "lng": -114.73525455430637,
  "url": "http://www.nytimes.com/2014/03/01/us/idaho-film-document-of-animal-abuse-is-banned.html",
  "date": "2014-03-01T00:00:00Z"
},
{
  "title": "When May I Shoot a Student?",
  "body": "Modest questions about an Idaho bill allowing guns on campus.",
  "location": "Idaho",
  "lat": 44.07113882998306,
  "lng": -114.74199531828882,
  "url": "http://www.nytimes.com/2014/02/28/opinion/when-may-i-shoot-a-student.html",
  "date": "2014-02-28T00:00:00Z"
},
{
  "title": "Wheelies: The Big Brother Is Not Watching Edition",
  "body": "The Homeland Security Department killed a plan to access commercial databases to help federal law enforcement officials track license plates.",
  "location": "Idaho",
  "lat": 44.0673645842489,
  "lng": -114.73641809005753,
  "url": "http://www.nytimes.com/2014/02/22/automobiles/wheelies-the-big-brother-is-not-watching-edition.html",
  "date": "2014-02-22T00:00:00Z"
},
{
  "title": "Crossing Borders and Changing Lives, Lured by Higher State Minimum Wages",
  "body": "A rolling borderland of onion farms and strip malls provides a test tube of sorts for observing how the minimum wage works in daily life.",
  "location": "Idaho",
  "lat": 44.06695646655508,
  "lng": -114.73674539397932,
  "url": "http://www.nytimes.com/2014/02/16/us/crossing-borders-and-changing-lives-lured-by-higher-state-minimum-wages.html",
  "date": "2014-02-16T00:00:00Z"
},
{
  "title": "Portrait of an Army Family",
  "body": "Alex Quade profiles the Pruetts, an Army family of eight who deployed 11 times.",
  "location": "Iraq",
  "lat": 33.22852517990586,
  "lng": 43.68397441028717,
  "url": "http://atwar.blogs.nytimes.com/2014/02/07/portrait-of-an-army-family/",
  "date": "2014-02-07T14:18:45Z"
},
{
  "title": "Calling All Candidates",
  "body": "Scott Brown is shirtless and on the front page of newspapers this week. It’s definitely an election year!",
  "location": "Idaho",
  "lat": 44.06672203019045,
  "lng": -114.74385204397245,
  "url": "http://www.nytimes.com/2014/02/06/opinion/collins-calling-all-candidates.html",
  "date": "2014-02-06T00:00:00Z"
},
{
  "title": "Health Law Goals Face Antitrust Hurdles",
  "body": "A judge in Idaho ruled against a hospital deal, saying that patient costs would have risen, but that outcomes would have been improved.",
  "location": "Idaho",
  "lat": 44.068405015965965,
  "lng": -114.74058431765546,
  "url": "http://www.nytimes.com/2014/02/05/business/economy/health-law-goals-face-antitrust-hurdles.html",
  "date": "2014-02-05T00:00:00Z"
},
{
  "title": "Idaho: Gay Rights Activists Are Arrested",
  "body": "The police arrested dozens of gay rights activists on Monday after a protest that blocked entrances to the Idaho Senate chambers in Boise for more than two hours.",
  "location": "Idaho",
  "lat": 44.07713349756775,
  "lng": -114.74100908198189,
  "url": "http://www.nytimes.com/2014/02/04/us/idaho-gay-rights-activists-are-arrested.html",
  "date": "2014-02-04T00:00:00Z"
},
{
  "title": "Saving the Wolf",
  "body": "A writer hopes that we\u0026#8217;ve learned something from a previous failure.",
  "location": "Wyoming",
  "lat": 43.07598082631637,
  "lng": -107.2866611915968,
  "url": "http://www.nytimes.com/2014/01/03/opinion/saving-the-wolf.html",
  "date": "2014-01-03T00:00:00Z"
},
{
  "title": "Homes for $650,000",
  "body": "This week’s properties include a condo in Miami Beach, a four-square in Idaho and a midcentury modern near Chicago.",
  "location": "Idaho",
  "lat": 44.073621892970706,
  "lng": -114.74442697316452,
  "url": "http://www.nytimes.com/slideshow/2014/01/02/greathomesanddestinations/20140102-GH-WYG.html",
  "date": "2014-01-02T00:00:00Z"
},
{
  "title": "Public Pension Tabs Multiply as States Defer Costs and Hard Choices ",
  "body": "States and cities continue to face a problem that stems from demographics, financial markets and reluctance to make politically tough decisions.",
  "location": "California",
  "lat": 36.77983601846449,
  "lng": -119.42072541070391,
  "url": "http://www.nytimes.com/2014/02/25/us/efforts-to-rein-in-public-sector-pension-costs-are-falling-short-experts-say.html",
  "date": "2014-02-25T00:00:00Z"
},
{
  "title": "Illinois: Ban on Gay Marriage Lifted in Cook County",
  "body": "Same-sex couples in Cook County, which includes Chicago, can wed immediately and do not have to wait until a state law legalizing gay marriage takes effect in June, a judge ruled Friday.",
  "location": "Illinois",
  "lat": 40.637697002275495,
  "lng": -89.39372403599151,
  "url": "http://www.nytimes.com/2014/02/22/us/illinois-ban-on-gay-marriage-lifted-in-cook-county.html",
  "date": "2014-02-22T00:00:00Z"
},
{
  "title": "Illinois: Unions Sue to Stop Pension Plan",
  "body": "Labor unions sued Tuesday seeking to throw out a new state law aimed at eliminating a pension shortfall, a long-expected move that could delay the plan.",
  "location": "Illinois",
  "lat": 40.63450239894817,
  "lng": -89.39854945574974,
  "url": "http://www.nytimes.com/2014/01/29/us/illinois-unions-sue-to-stop-pension-plan.html",
  "date": "2014-01-29T00:00:00Z"
},
{
  "title": "Justices Appear Divided on a Sweeping Challenge to Public Workers’ Unions",
  "body": "The Supreme Court’s questioning fell largely on ideological lines over an effort to allow government workers to opt out of paying union dues in collective bargaining negotiations.",
  "location": "Illinois",
  "lat": 40.63516148567653,
  "lng": -89.40491237061504,
  "url": "http://www.nytimes.com/2014/01/22/us/justices-appear-divided-on-challenge-to-public-unions.html",
  "date": "2014-01-22T00:00:00Z"
},
{
  "title": "Illinois: Diocese Releases Papers on Abuse by Priests",
  "body": "The Catholic Archdiocese of Chicago released 6,000 pages of documents on sexually abusive priests on Wednesday to victims’ lawyers.",
  "location": "Chicago (Ill)",
  "lat": 41.88001164774257,
  "lng": -87.6362587703064,
  "url": "http://www.nytimes.com/2014/01/16/us/illinois-diocese-releases-papers-on-abuse-by-priests.html",
  "date": "2014-01-16T00:00:00Z"
},
{
  "title": "Illinois: Chicago Is Granted More Time to Write Gun Law",
  "body": "Judge Edward E. Chang of Federal District Court approved Chicago’s request for a six-month delay to allow the city time to come up with a new ordinance regulating gun sales.",
  "location": "Chicago (Ill)",
  "lat": 41.8824645882518,
  "lng": -87.62662341276682,
  "url": "http://www.nytimes.com/2014/01/15/us/illinois-chicago-is-granted-more-time-to-write-gun-law.html",
  "date": "2014-01-15T00:00:00Z"
},
{
  "title": "Pictures of the Day: Britain and Elsewhere",
  "body": "Photos from Wales, Illinois, Bangladesh and Indonesia.",
  "location": "Indonesia",
  "lat": -0.7857200581917861,
  "lng": 113.92885958498644,
  "url": "http://lens.blogs.nytimes.com/2014/01/06/pictures-of-the-day-england-and-elsewhere-6/",
  "date": "2014-01-06T16:45:16Z"
},
{
  "title": "Homes for $650,000",
  "body": "This week’s properties include a condo in Miami Beach, a four-square in Idaho and a midcentury modern near Chicago.",
  "location": "Idaho",
  "lat": 44.071329050002404,
  "lng": -114.74100881743963,
  "url": "http://www.nytimes.com/slideshow/2014/01/02/greathomesanddestinations/20140102-GH-WYG.html",
  "date": "2014-01-02T00:00:00Z"
},
{
  "title": "What You Get for... $650,000",
  "body": "Properties include a condo in Miami Beach, a four-square in Idaho and a midcentury modern near Chicago.",
  "location": "Idaho",
  "lat": 44.06893772539138,
  "lng": -114.74262340066402,
  "url": "http://www.nytimes.com/2014/01/02/greathomesanddestinations/what-you-get-for-650000.html",
  "date": "2014-01-02T00:00:00Z"
},
{
  "title": "Illinois: Retirees Challenge Pension Plan",
  "body": "A group of eight retired teachers and administrators filed a lawsuit in Cook County Circuit Court seeking to have a new plan to reduce the state’s $100 billion pension shortfall declared unconstitutional.",
  "location": "Illinois",
  "lat": 40.63315741387133,
  "lng": -89.40527206408684,
  "url": "http://www.nytimes.com/2013/12/28/us/illinois-retirees-challenge-pension-plan.html",
  "date": "2013-12-28T00:00:00Z"
},
{
  "title": "In Diluting Measure to Ban Gay Marriage, Indiana Shows a Shift",
  "body": "Indiana pushed forward a constitutional amendment defining marriage as between a man and a woman, but language had been removed that some supporters of a ban had considered essential.",
  "location": "Indiana",
  "lat": 40.26753513049944,
  "lng": -86.14166209631084,
  "url": "http://www.nytimes.com/2014/02/18/us/politics/in-diluting-measure-to-ban-gay-marriage-indiana-shows-a-shift.html",
  "date": "2014-02-18T00:00:00Z"
},
{
  "title": "Indiana: House Advances Ban on Gay Marriage",
  "body": "The State House approved a proposal Tuesday that would place Indiana’s ban on same-sex marriage in the state Constitution while leaving the door open to eventual approval of civil unions.",
  "location": "Indiana",
  "lat": 40.25819893173692,
  "lng": -86.12715789414735,
  "url": "http://www.nytimes.com/2014/01/29/us/indiana-house-advances-ban-on-gay-marriage.html",
  "date": "2014-01-29T00:00:00Z"
},
{
  "title": "Video of Vigil for Purdue Student Shot and Killed in Classroom ",
  "body": "A vigil was held for a 21-year-old Purdue University student who was killed in the school’s engineering building on Tuesday.",
  "location": "Indiana",
  "lat": 40.26847314456617,
  "lng": -86.13406121515791,
  "url": "http://thelede.blogs.nytimes.com/2014/01/22/video-of-vigil-for-purdue-student-shot-and-killed-in-classroom/",
  "date": "2014-01-22T13:00:08Z"
},
{
  "title": "Indiana: Suspect Surrenders After a Killing in a Purdue Classroom",
  "body": "Police identified the suspect as Cody Cousins, 23, of Warsaw, Ind., an engineering student, who appeared to have targeted the victim, Andrew Boldt, 21, of West Bend, a teaching assistant.",
  "location": "Indiana",
  "lat": 40.26533186971754,
  "lng": -86.14071696920372,
  "url": "http://www.nytimes.com/2014/01/22/us/indiana-suspect-surrenders-after-a-killing-in-a-purdue-classroom.html",
  "date": "2014-01-22T00:00:00Z"
},
{
  "title": "Indiana: Police Kill Suspect in Fatal Shootings at Store",
  "body": "A man fatally shot two women in an Elkhart grocery and was waving a gun at a kneeling store manager when police officers arrived and killed him, the authorities said Thursday.",
  "location": "Elkhart (Ind)",
  "lat": 41.68534512738867,
  "lng": -85.97772907712064,
  "url": "http://www.nytimes.com/2014/01/17/us/indiana-police-kill-suspect-in-fatal-shootings-at-store.html",
  "date": "2014-01-17T00:00:00Z"
},
{
  "title": "Indiana: Measure Seeks to Put Gay-Marriage Ban in Constitution",
  "body": "A House Republican has introduced a measure to put Indiana’s ban on gay marriage in the state Constitution.",
  "location": "Indiana",
  "lat": 40.27486901129251,
  "lng": -86.13078186162421,
  "url": "http://www.nytimes.com/2014/01/10/us/indiana-measure-seeks-to-put-gay-marriage-ban-in-constitution.html",
  "date": "2014-01-10T00:00:00Z"
},
{
  "title": "Andrew Jacobs Jr., 81, Ex-Congressman, Dies",
  "body": "A former Marine, Mr. Jacobs was among the early critics of the Vietnam War. He also helped write the 1965 Voting Rights Act, a touchstone of civil rights legislation.",
  "location": "Indiana",
  "lat": 40.27116017539393,
  "lng": -86.1293813454539,
  "url": "http://www.nytimes.com/2013/12/29/us/politics/andrew-jacobs-jr-81-ex-congressman-dies.html",
  "date": "2013-12-29T00:00:00Z"
},
{
  "title": "Indiana Finds It’s Not So Easy to Buck Gay Marriage Trend",
  "body": "Supporters of same-sex marriage say victory in a generally conservative place would mark a turning point in a fight that has largely been waged in more left-leaning states or in the courts.",
  "location": "Indiana",
  "lat": 40.26974375912882,
  "lng": -86.13037166659224,
  "url": "http://www.nytimes.com/2013/12/25/us/indiana-ponders-vote-to-buck-trend-on-same-sex-marriage.html",
  "date": "2013-12-25T00:00:00Z"
},
{
  "title": "South Bend, Ind., to Recall Studebaker’s 1963 Departure",
  "body": "Although a death anniversary of sorts, the 50-year anniversary of Studebaker closing its plant in the city was celebrated with fireworks.",
  "location": "South Bend (Ind)",
  "lat": 41.67746663606183,
  "lng": -86.25299934333769,
  "url": "http://www.nytimes.com/2013/12/21/automobiles/south-bend-ind-to-recall-studebakers-1963-departure.html",
  "date": "2013-12-21T00:00:00Z"
},
{
  "title": "Tensions Rise as Indiana Schools Chief and Governor Clash Over New Agency",
  "body": "In a public political fight, the top education official, an elected Democrat, has accused the Republican governor of undermining her office.",
  "location": "Indiana",
  "lat": 40.265102635161966,
  "lng": -86.13650934424487,
  "url": "http://www.nytimes.com/2013/12/09/us/politics/tensions-rise-as-indiana-schools-chief-and-governor-clash-over-new-agency.html",
  "date": "2013-12-09T00:00:00Z"
},
{
  "title": "Iowa: Five Die in House Fire",
  "body": "The bodies of five people were retrieved Friday from a house in Arlington destroyed by an early morning fire.",
  "location": "Arlington (Iowa)",
  "lat": 42.75019116981745,
  "lng": -91.66777374573168,
  "url": "http://www.nytimes.com/2014/01/25/us/iowa-five-die-in-house-fire.html",
  "date": "2014-01-25T00:00:00Z"
},
{
  "title": "Setting the Table for a Regal Butterfly Comeback, With Milkweed",
  "body": "Conservationists have planted milkweed, a favored food of the butterfly, along migratory routes where natural habitat has been plowed under for crops.",
  "location": "Iowa",
  "lat": 41.876057878628146,
  "lng": -93.09206028633736,
  "url": "http://www.nytimes.com/2013/12/21/us/setting-the-table-for-a-fluttering-comeback-with-milkweed.html",
  "date": "2013-12-21T00:00:00Z"
},
{
  "title": "Iowa: Plan to Expand Medicaid Is Largely Approved",
  "body": "The federal authorities approved Iowa’s proposal to expand low-income health care, but they are not giving Gov. Terry E. Branstad as much flexibility as he sought.",
  "location": "Iowa",
  "lat": 41.877086858792154,
  "lng": -93.09383444613012,
  "url": "http://www.nytimes.com/2013/12/11/us/iowa-plan-to-expand-medicaid-is-largely-approved.html",
  "date": "2013-12-11T00:00:00Z"
},
{
  "title": "Monday Motorsports: Toyota Finally Wins a World Endurance Championship Race",
  "body": "Anthony Davidson, Sébastien Buemi and Stéphane Sarrazin pick up a W.E.C. win; Don Panoz sues Nissan over DeltaWing lookalike.",
  "location": "Iowa",
  "lat": 41.87125644472536,
  "lng": -93.09972761079088,
  "url": "http://www.nytimes.com/2013/12/03/automobiles/monday-motorsports-toyota-finally-wins-a-world-endurance-championship-race.html",
  "date": "2013-12-03T00:00:00Z"
},
{
  "title": "In Iowa, but Dreaming of D.C.",
  "body": "“Caucus,” an A. J. Schnack documentary, chronicles the Republican nominating contest in Iowa in 2012.",
  "location": "Iowa",
  "lat": 41.87005206781322,
  "lng": -93.10403520246933,
  "url": "http://www.nytimes.com/2013/11/08/movies/caucus-captures-republican-contenders-in-2012.html",
  "date": "2013-11-08T00:00:00Z"
},
{
  "title": "G.O.P. Weighs Limiting Clout of Right Wing",
  "body": "Leaders of the Republican establishment are pushing their party to rethink how it chooses nominees and advocating changes they say would result in less extreme contenders.",
  "location": "Utah",
  "lat": 39.31580649808744,
  "lng": -111.09279728181859,
  "url": "http://www.nytimes.com/2013/11/07/us/politics/gop-weighs-limiting-clout-of-right-wing.html",
  "date": "2013-11-07T00:00:00Z"
},
{
  "title": "Schumer Endorses Clinton for President in Iowa Speech",
  "body": "Senator Charles E. Schumer’s endorsement adds to the  support among Democrats for a campaign bid by Hillary Rodham Clinton, who has not said whether she will run in 2016.",
  "location": "Iowa",
  "lat": 41.87863335016661,
  "lng": -93.09803595794509,
  "url": "http://www.nytimes.com/2013/11/03/us/politics/schumer-backs-clinton-for-president-in-speech-to-iowa-democrats.html",
  "date": "2013-11-03T00:00:00Z"
},
{
  "title": "Cruz Takes His Stand on the Road to Iowa",
  "body": "Senator Ted Cruz, the Texas Republican, argued that the battle over the health care law would invigorate Republicans in next year’s elections.",
  "location": "Iowa",
  "lat": 41.88498770836773,
  "lng": -93.09098985734822,
  "url": "http://www.nytimes.com/2013/10/26/us/politics/cruz-takes-his-stand-on-the-road-to-iowa.html",
  "date": "2013-10-26T00:00:00Z"
},
{
  "title": "The Bad News for Local Job Markets",
  "body": "The number of education and health care jobs could grow in the coming years, but this does not imply job growth in small and midsize cities that depend on these sectors.",
  "location": "Toledo (Ohio)",
  "lat": 41.66420990334385,
  "lng": -83.54889623935237,
  "url": "http://www.nytimes.com/2013/10/25/opinion/the-bad-news-for-local-job-markets.html",
  "date": "2013-10-25T00:00:00Z"
},
{
  "title": "Navajo Leader Drops His Support for Slaughter of Wild Horses on the Reservation",
  "body": "Under pressure from animal welfare groups and many of his own people, the president of the Navajo Nation, Ben Shelly, has reversed his stance.",
  "location": "Iowa",
  "lat": 41.87183844152045,
  "lng": -93.0965939618833,
  "url": "http://www.nytimes.com/2013/10/08/us/navajo-leader-drops-his-support-for-slaughter-of-wild-horses-on-the-reservation.html",
  "date": "2013-10-08T00:00:00Z"
},
{
  "title": "8 Cities Vie for 2016 Republican Convention",
  "body": "Republicans announced a list of cities in the West and Midwest, including three in Ohio, in contention to host the official campaign kickoff.",
  "location": "Phoenix (Ariz)",
  "lat": 33.447293873427135,
  "lng": -112.08047183079162,
  "url": "http://thecaucus.blogs.nytimes.com/2014/02/27/8-cities-vie-for-2016-republican-convention/",
  "date": "2014-02-27T16:10:49Z"
},
{
  "title": "Google Fiber, Ultrahigh-Speed Internet, May Expand to 34 New Cities ",
  "body": "Google is asking 34 cities to pave the way for Fiber without guaranteeing it will install it, a change in approach as the Internet giant grapples with real-world challenges like tearing up roads.",
  "location": "San Jose (Calif)",
  "lat": 37.33937415109626,
  "lng": -121.89687838830937,
  "url": "http://bits.blogs.nytimes.com/2014/02/19/google-fiber-ultrahigh-speed-internet-may-expand-to-34-new-cities/",
  "date": "2014-02-19T19:52:52Z"
},
{
  "title": "Small Towns in Southwest Fear Loss of Cherished Train Line",
  "body": "The Southwest Chief route, a lifeline to rural communities, is in danger if Amtrak cannot persuade three of the states it runs through to help fund track repairs and maintenance.",
  "location": "New Mexico",
  "lat": 34.510032507958925,
  "lng": -105.86859052580085,
  "url": "http://www.nytimes.com/2014/02/18/us/small-towns-in-southwest-fear-loss-of-cherished-train-line.html",
  "date": "2014-02-18T00:00:00Z"
},
{
  "title": "In Kansas, Right Joins Left to Halt Bill on Gays",
  "body": "The legislation would have allowed the denial of business services to same-sex couples because of religious beliefs.",
  "location": "Kansas",
  "lat": 39.01511596686524,
  "lng": -98.48893392321095,
  "url": "http://www.nytimes.com/2014/02/17/us/politics/in-kansas-right-joins-left-to-halt-bill-on-gays.html",
  "date": "2014-02-17T00:00:00Z"
},
{
  "title": "Kansas: Senate President Objects to Bill on Services for Gay Couples",
  "body": "The state Senate will not pass a bill in its current form that would prevent lawsuits against someone who refuses, for religious reasons, to provide services to gays and lesbians, the chamber’s president said Friday.",
  "location": "Kansas",
  "lat": 39.01165125580143,
  "lng": -98.48902425307512,
  "url": "http://www.nytimes.com/2014/02/15/us/kansas-senate-president-objects-to-bill-on-services-for-gay-couples.html",
  "date": "2014-02-15T00:00:00Z"
},
{
  "title": "Pope Pressed on Bishop Who Supervised Pedophile",
  "body": "Parishioners argued that Bishop Robert W. Finn should be subject to disciplinary action by the church for failing to notify authorities that a priest in his diocese was an active pedophile.",
  "location": "Kansas City (Mo)",
  "lat": 39.09731208418997,
  "lng": -94.57427300024871,
  "url": "http://www.nytimes.com/2014/02/15/us/pope-pressed-on-bishop-who-supervised-pedophile.html",
  "date": "2014-02-15T00:00:00Z"
},
{
  "title": "Brownback Leads Kansas in Sharp Right Turn",
  "body": "Sam Brownback, the Republican governor of Kansas who this year faces an election challenge, has pursued a bullishly conservative agenda while working to oust moderates.",
  "location": "Kansas",
  "lat": 39.017212017855584,
  "lng": -98.4908176830055,
  "url": "http://www.nytimes.com/2014/02/14/us/politics/brownback-leads-kansas-in-sharp-right-turn.html",
  "date": "2014-02-14T00:00:00Z"
},
{
  "title": "Lacking a House, a Senator Is Renewing His Ties in Kansas",
  "body": "As the Republican mainstream has been threatened by the Tea Party, Senator Pat Roberts is desperate to re-establish ties to Kansas and adjust his politics to fit the rise of the right there.",
  "location": "Kansas",
  "lat": 39.01744164803436,
  "lng": -98.48600698137813,
  "url": "http://www.nytimes.com/2014/02/08/us/senator-races-to-show-ties-including-an-address-in-kansas.html",
  "date": "2014-02-08T00:00:00Z"
},
{
  "title": "No Help for Farm Bill From Miffed Kansans in the House",
  "body": "Though the new farm bill passed, it did so without the help of the Kansas congressional delegation, which voted unanimously against it.",
  "location": "Kansas",
  "lat": 39.017256243717256,
  "lng": -98.49014530617576,
  "url": "http://thecaucus.blogs.nytimes.com/2014/01/31/no-help-for-farm-bill-from-miffed-kansans-in-the-house/",
  "date": "2014-01-31T12:24:54Z"
},
{
  "title": "Faded Beauty",
  "body": "In a life-size cabinet of curiosities in Kansas City, Mo., the strange and quirky intermingle, and reupholstering is frowned upon.",
  "location": "Kansas City (Mo)",
  "lat": 39.09702203830936,
  "lng": -94.57716136196531,
  "url": "http://www.nytimes.com/slideshow/2014/01/23/greathomesanddestinations/20140123_LOCATIONS.html",
  "date": "2014-01-23T00:00:00Z"
},
{
  "title": "‘A Trip to Mammoth Cave, Ky.’",
  "body": "In 1864, James Fowler Rusling, a Union soldier and abolitionist, published a pamphlet recounting his experiences in the cave as well as an interview he conducted with Materson Bransford, the slave who served as his guide.",
  "location": "Kentucky",
  "lat": 37.837715079034794,
  "lng": -84.26925309164454,
  "url": "http://www.nytimes.com/interactive/2014/03/02/travel/explorer-document.html",
  "date": "2014-03-02T00:00:00Z"
},
{
  "title": "In Kentucky, a Family at the Center of the Earth",
  "body": "Tours of Mammoth Cave’s rambling passages have been given since before the Civil War and one family has led them from the time its guides were slaves.",
  "location": "Kentucky",
  "lat": 37.83540455297438,
  "lng": -84.26685840420066,
  "url": "http://www.nytimes.com/2014/03/02/travel/in-kentucky-a-family-at-the-center-of-the-earth.html",
  "date": "2014-03-02T00:00:00Z"
},
{
  "title": "Kentucky: State Is Told to Recognize Gay Marriages",
  "body": "A federal judge on Thursday signed an order directing officials in Kentucky to immediately recognize same-sex marriages performed in other states and countries.",
  "location": "Kentucky",
  "lat": 37.838424059092496,
  "lng": -84.2672733210689,
  "url": "http://www.nytimes.com/2014/02/28/us/kentucky-state-is-told-to-recognize-gay-marriages.html",
  "date": "2014-02-28T00:00:00Z"
},
{
  "title": "Times Minute | Childhood Obesity Drops",
  "body": "Also on the Minute, why Clinton is a campaign staple and a push to ban plastic bags in California.",
  "location": "Kentucky",
  "lat": 37.83686619023106,
  "lng": -84.26973999739914,
  "url": "http://www.nytimes.com/video/multimedia/100000002735168/times-minute-childhood-obesity-drops.html",
  "date": "2014-02-26T05:47:14Z"
},
{
  "title": "Ex-President Ventures Where Some Might Not",
  "body": "When red-state Democrats need a popular national leader in their corner, former President Bill Clinton is the man they call.",
  "location": "Kentucky",
  "lat": 37.83994015249001,
  "lng": -84.27716049859953,
  "url": "http://www.nytimes.com/2014/02/26/us/politics/ex-president-ventures-where-some-might-not.html",
  "date": "2014-02-26T00:00:00Z"
},
{
  "title": "Clinton Makes Kentucky Appearance",
  "body": "The former president spoke at a fund-raiser in Louisville for Alison Lundergan Grimes, a Democratic Senate candidate.",
  "location": "Kentucky",
  "lat": 37.84124732682435,
  "lng": -84.26912404273351,
  "url": "http://www.nytimes.com/video/us/100000002734958/clinton-makes-kentucky-appearance.html",
  "date": "2014-02-25T21:02:16Z"
},
{
  "title": "Kentucky Challenger Sets Sights on Senate G.O.P. Heavyweight",
  "body": "Democrats are coalescing around Alison Lundergan Grimes, Kentucky\u0026#8217;s secretary of state, who is seeking to unseat Mitch McConnell, the Senate minority leader.",
  "location": "Kentucky",
  "lat": 37.84043645342259,
  "lng": -84.27403923722245,
  "url": "http://www.nytimes.com/2014/02/22/us/politics/challenger-in-kentucky-sets-sights-on-senate-heavyweight.html",
  "date": "2014-02-22T00:00:00Z"
},
{
  "title": "The Line at the ‘Super PAC’ Trough",
  "body": "An unlimited source of cash is now a requirement for contested congressional races.",
  "location": "Kentucky",
  "lat": 37.83657779721473,
  "lng": -84.26647726769477,
  "url": "http://www.nytimes.com/2014/02/16/opinion/sunday/the-line-at-the-super-pac-trough.html",
  "date": "2014-02-16T00:00:00Z"
},
{
  "title": "Part of Kentucky Marriage Law Overturned",
  "body": "A federal judge in Kentucky ruled that the state must recognize same-sex marriages that have been performed legally in other states.",
  "location": "Louisiana",
  "lat": 30.977544520322603,
  "lng": -91.96041242356407,
  "url": "http://www.nytimes.com/2014/02/13/us/part-of-kentucky-marriage-law-overturned.html",
  "date": "2014-02-13T00:00:00Z"
},
{
  "title": "Sinkhole Beneath National Corvette Museum Devours 8 Cars",
  "body": "A sinkhole estimated to be 40 feet across and about 30 feet deep opened up beneath a museum building, causing part of its floor to collapse.",
  "location": "Kentucky",
  "lat": 37.84145787048755,
  "lng": -84.27529356365355,
  "url": "http://www.nytimes.com/2014/02/13/automobiles/sinkhole-beneath-national-corvette-museum-devours-8-cars.html",
  "date": "2014-02-13T00:00:00Z"
},
{
  "title": "Part of Kentucky Marriage Law Overturned",
  "body": "A federal judge in Kentucky ruled that the state must recognize same-sex marriages that have been performed legally in other states.",
  "location": "Louisiana",
  "lat": 30.979207665029815,
  "lng": -91.96627495691686,
  "url": "http://www.nytimes.com/2014/02/13/us/part-of-kentucky-marriage-law-overturned.html",
  "date": "2014-02-13T00:00:00Z"
},
{
  "title": "Energy Role Is Lifting Democrat in Louisiana",
  "body": "Senator Mary L. Landrieu\u0026#8217;s new post as chairwoman of the Senate Energy Committee could help her in what is expected to be a tough re-election fight.",
  "location": "Louisiana",
  "lat": 30.980780424697002,
  "lng": -91.95386815330728,
  "url": "http://www.nytimes.com/2014/02/07/us/politics/energy-role-is-lifting-democrat-in-louisiana.html",
  "date": "2014-02-07T00:00:00Z"
},
{
  "title": "Louisiana: Execution Delayed as Drugs Are Studied",
  "body": "The state Corrections Department said Monday that it was postponing for 90 days the Wednesday execution of a man who murdered his 6-year-old stepson.",
  "location": "Louisiana",
  "lat": 30.983881389654663,
  "lng": -91.97118896703554,
  "url": "http://www.nytimes.com/2014/02/04/us/louisiana-execution-delayed-as-drugs-are-studied.html",
  "date": "2014-02-04T00:00:00Z"
},
{
  "title": "Louisiana: Gas Well Out of Control",
  "body": "Crews lost control of a natural gas well being drilled off the Louisiana coast Thursday, but officials said that no injuries or pollution had been reported and that efforts were underway to stop the flow of gas.",
  "location": "Louisiana",
  "lat": 30.98305152117297,
  "lng": -91.96109248153545,
  "url": "http://www.nytimes.com/2014/01/31/us/louisiana-gas-well-out-of-control.html",
  "date": "2014-01-31T00:00:00Z"
},
{
  "title": "In Landrieu Races, Obama Helps and Hinders",
  "body": "Two Landrieus face re-election in campaigns that are complicated by the currents of race and history that run through Louisiana, but also by national factors, chief among which is President Obama.",
  "location": "Louisiana",
  "lat": 30.989228472023843,
  "lng": -91.96858700526944,
  "url": "http://www.nytimes.com/2014/01/31/us/politics/in-landrieu-races-obama-helps-and-hinders.html",
  "date": "2014-01-31T00:00:00Z"
},
{
  "title": "Vitter to Run for Louisiana Governor",
  "body": "A Republican once tarred by a prostitution scandal, Senator David Vitter announced he will run to succeed Gov. Bobby Jindal in 2015.",
  "location": "Louisiana",
  "lat": 30.9922143771473,
  "lng": -91.96655433570295,
  "url": "http://thecaucus.blogs.nytimes.com/2014/01/21/vitter-to-run-for-louisiana-governor/",
  "date": "2014-01-21T12:51:24Z"
},
{
  "title": "A Step Toward Restoring Voting Rights",
  "body": "Though flawed, a bipartisan bill would begin to undo the Supreme Court’s damage.",
  "location": "Texas",
  "lat": 31.976514799852684,
  "lng": -99.90306811641156,
  "url": "http://www.nytimes.com/2014/01/19/opinion/sunday/a-step-toward-restoring-voting-rights.html",
  "date": "2014-01-19T00:00:00Z"
},
{
  "title": "The South\u0027s Greatest Governor",
  "body": "Henry Watkins Allen belied the picture of Southern administrators as incompetent and inefficient.",
  "location": "Louisiana",
  "lat": 30.98312423460845,
  "lng": -91.96520969042412,
  "url": "http://opinionator.blogs.nytimes.com/2014/01/13/the-souths-greatest-governor/",
  "date": "2014-01-13T11:30:31Z"
},
{
  "title": "Wheelies: The Vice Presidential Auto Show Edition",
  "body": "Vice President Joe Biden is expected to show up at the Detroit auto show next week; David Strickland steps down as the N.H.T.S.A. administrator.",
  "location": "Detroit (Mich)",
  "lat": 42.32637805110632,
  "lng": -83.04041878419117,
  "url": "http://www.nytimes.com/2014/01/10/automobiles/wheelies-the-vice-presidential-auto-show-edition.html",
  "date": "2014-01-10T00:00:00Z"
},
{
  "title": "Louisiana: Four Dead in Rampage",
  "body": "A nurse killed his wife before shooting his former in-laws and his onetime boss, killing three people and wounding three others before fatally shooting himself, authorities said.",
  "location": "Louisiana",
  "lat": 30.983579130446316,
  "lng": -91.96791077969776,
  "url": "http://www.nytimes.com/2013/12/28/us/louisiana-four-dead-in-rampage.html",
  "date": "2013-12-28T00:00:00Z"
},
{
  "title": "Fresh Maine Scallops; Hefty Sandwiches and a Wine Club in Manhattan",
  "body": "Recommendations for the week of Feb. 25.",
  "location": "Maine",
  "lat": 45.249274527250655,
  "lng": -69.4475129537674,
  "url": "http://www.nytimes.com/2014/02/26/dining/fresh-maine-scallops-hefty-sandwiches-and-a-wine-club-in-manhattan.html",
  "date": "2014-02-26T00:00:00Z"
},
{
  "title": "Every Dog Has Its Getaway",
  "body": "An inn in Maine has a weekend package that has plenty of perks for pooches.",
  "location": "Maine",
  "lat": 45.251042362965215,
  "lng": -69.44360029589643,
  "url": "http://intransit.blogs.nytimes.com/2014/02/11/every-dog-has-its-getaway/",
  "date": "2014-02-11T10:40:48Z"
},
{
  "title": "A Vegan-Focused Valentine\u0027s Weekend",
  "body": "Windward House Bed and Breakfast in Maine is offering a Valentine’s weekend package free of animal products.",
  "location": "Maine",
  "lat": 45.25130663000058,
  "lng": -69.44986553189867,
  "url": "http://intransit.blogs.nytimes.com/2014/02/06/a-vegan-focused-valentines-weekend/",
  "date": "2014-02-06T10:52:59Z"
},
{
  "title": "Maine Governor Cites ‘Troubling Epidemic’ of Addicted Babies",
  "body": "Gov. Paul R. LePage, making a State of the State address, was the second New England governor in a month to point to the drug problem.",
  "location": "Maine",
  "lat": 45.260546859379744,
  "lng": -69.44323181524199,
  "url": "http://www.nytimes.com/2014/02/06/us/maine-state-of-the-state-addicted-babies.html",
  "date": "2014-02-06T00:00:00Z"
},
{
  "title": "National Park Proves a Hard Gift to Give",
  "body": "A landowner’s plan to donate 75,000 acres for a national park in Maine has met fierce opposition, partly because many in the region loathe the idea of giving Washington a toehold there.",
  "location": "Maine",
  "lat": 45.2471609902037,
  "lng": -69.44252036263245,
  "url": "http://www.nytimes.com/2014/01/10/us/a-national-park-for-maine-proves-a-hard-gift-to-give.html",
  "date": "2014-01-10T00:00:00Z"
},
{
  "title": "Fire From Latest Derailment Rages in Canada",
  "body": "Accident investigators were unable to approach a train near the border of Maine and New Brunswick, more than 24 hours after several tank cars derailed and burst into flames.",
  "location": "Maine",
  "lat": 45.25449843743424,
  "lng": -69.43902194790961,
  "url": "http://www.nytimes.com/2014/01/09/world/americas/fire-from-latest-derailment-rages-in-canada.html",
  "date": "2014-01-09T00:00:00Z"
},
{
  "title": "A Long, Frozen Rescue and Sharks on Twitter",
  "body": "It was a long wait for those on a trapped research vessel, and if any of 338 sharks get too close to the Australian beach, they’ll send out tweets.",
  "location": "Antarctic Regions",
  "lat": 0.004308144086230862,
  "lng": -0.003292379190108351,
  "url": "http://www.nytimes.com/2014/01/07/science/a-long-frozen-rescue-and-sharks-on-twitter.html",
  "date": "2014-01-07T00:00:00Z"
},
{
  "title": "Daunting Calculus for Maine Shrimpers as Entire Season Is Lost",
  "body": "Regulators took the unusual step of closing the entire Maine shrimping season to give a historically low supply time to recover, worrying those whose livelihoods depend on it.",
  "location": "Gulf of Maine",
  "lat": 43.132921870827055,
  "lng": -68.32404411909755,
  "url": "http://www.nytimes.com/2014/01/01/us/for-maine-shrimpers-a-frightening-calculus.html",
  "date": "2014-01-01T00:00:00Z"
},
{
  "title": "Poison Gas Kills Eight Left in Dark After Storm",
  "body": "After hundreds of thousands spent Christmas without electricity, carbon monoxide from gasoline-powered generators was blamed for deaths in the Northeast and Midwest.",
  "location": "Maine",
  "lat": 45.24605415596258,
  "lng": -69.44477143406341,
  "url": "http://www.nytimes.com/2013/12/26/us/carbon-monoxide-causes-fatalities-after-power-outage.html",
  "date": "2013-12-26T00:00:00Z"
},
{
  "title": "Ice Storms Leave Hundreds of Thousands in the Dark",
  "body": "Electrical crews were racing to make repairs, but people from Michigan to Maine were preparing for a dark and cold holiday.",
  "location": "Maine",
  "lat": 45.256179947855045,
  "lng": -69.43756967160556,
  "url": "http://www.nytimes.com/2013/12/25/us/ice-storms-leaves-hundreds-of-thousands-without-power.html",
  "date": "2013-12-25T00:00:00Z"
},
{
  "title": "American Held in Israeli Prison Dies in Shootout",
  "body": "The death of Samuel Sheinbein, who fled to Israel after a murder in Maryland, brought a dramatic conclusion to a painful episode that had strained American-Israeli relations.",
  "location": "Israel",
  "lat": 31.043398892917363,
  "lng": 34.854627394833315,
  "url": "http://www.nytimes.com/2014/02/24/world/middleeast/american-held-in-israeli-prison-dies-in-shootout.html",
  "date": "2014-02-24T00:00:00Z"
},
{
  "title": "Real Discipline in School",
  "body": "Reducing suspensions improves graduation rates.",
  "location": "Baltimore (Md)",
  "lat": 39.29435343281048,
  "lng": -76.60522139864341,
  "url": "http://www.nytimes.com/2014/02/17/opinion/real-discipline-in-school.html",
  "date": "2014-02-17T00:00:00Z"
},
{
  "title": "Where White Means Diversity",
  "body": "A ruling in Maryland has turned the spotlight on diversification of historically black colleges.",
  "location": "Maryland",
  "lat": 39.04499534445143,
  "lng": -76.64249067588848,
  "url": "http://www.nytimes.com/2014/02/09/education/edlife/marylands-black-colleges-fight-for-equity.html",
  "date": "2014-02-09T00:00:00Z"
},
{
  "title": "Power Failures Are Still Widespread After Storm",
  "body": "More than 500,000 people in Pennsylvania and Maryland went a second day without electricity on Thursday after heavy ice felled trees and damaged electrical equipment.",
  "location": "Maryland",
  "lat": 39.04353002282408,
  "lng": -76.64139870054127,
  "url": "http://www.nytimes.com/2014/02/07/us/power-failures-are-still-widespread-after-storm.html",
  "date": "2014-02-07T00:00:00Z"
},
{
  "title": "Glitches in State Exchanges Give G.O.P. a Cudgel",
  "body": "State-run health insurance exchanges are now the biggest laggards in fixing enrollment problems, and Republicans have vowed to make them an election issue.",
  "location": "Maryland",
  "lat": 39.047039093644116,
  "lng": -76.64939709672153,
  "url": "http://www.nytimes.com/2014/02/02/us/politics/glitches-in-state-exchanges-give-gop-a-cudgel.html",
  "date": "2014-02-02T00:00:00Z"
},
{
  "title": "Maryland: Shooting Suspect Wrote of Death",
  "body": "Darion Aguilar, the suspect in a deadly shooting at a mall, wrote about killing people in his journal and said that he was ready to die.",
  "location": "Maryland",
  "lat": 39.04768020491781,
  "lng": -76.64785047110371,
  "url": "http://www.nytimes.com/2014/01/30/us/maryland-shooting-suspect-wrote-of-death.html",
  "date": "2014-01-30T00:00:00Z"
},
{
  "title": "Maryland Shooting News Conference",
  "body": "The Howard County police chief, William J. McMahon, addressed the news media about the deadly shootings at the Mall in Columbia.",
  "location": "Columbia (Md)",
  "lat": 39.199126434164285,
  "lng": -76.86192981737442,
  "url": "http://www.nytimes.com/video/us/100000002671692/maryland-shooting-news-conference.html",
  "date": "2014-01-26T14:47:29Z"
},
{
  "title": "Video from Police Briefing on Maryland Mall Shooting",
  "body": "The gunman in the shooting at the Mall in Columbia, which killed three people, was identified on Sunday as Darion Marcus Aguilar, 19, of College Park, Md.",
  "location": "Columbia (Md)",
  "lat": 39.20497211072983,
  "lng": -76.86195430742778,
  "url": "http://thelede.blogs.nytimes.com/2014/01/26/gunman-in-maryland-mall-shooting-is-identified/",
  "date": "2014-01-26T10:04:36Z"
},
{
  "title": "Aide Arrested in Child Pornography Case Is Found Dead",
  "body": "Ryan Loskarn, a former chief of staff for Senator Lamar Alexander, Republican of Tennessee, was found dead in his parents’ home, apparently in a suicide.",
  "location": "Tennessee",
  "lat": 35.51399953804308,
  "lng": -86.58012980285501,
  "url": "http://www.nytimes.com/2014/01/25/us/politics/aide-arrested-in-child-pornography-case-is-found-dead.html",
  "date": "2014-01-25T00:00:00Z"
},
{
  "title": "When the Right to Bear Arms Includes the Mentally Ill",
  "body": "Law enforcement is often powerless when it comes to keeping firearms out of the hands of people who are mentally ill, an unresolved issue in the debate over the Second Amendment.",
  "location": "Connecticut",
  "lat": 41.59902396950269,
  "lng": -73.08668514788394,
  "url": "http://www.nytimes.com/2013/12/22/us/when-the-right-to-bear-arms-includes-the-mentally-ill.html",
  "date": "2013-12-22T00:00:00Z"
},
{
  "title": "Massachusetts: Revere Voters Approve Casino Proposal by Mohegan Sun",
  "body": "Voters in Revere on Tuesday approved Mohegan Sun’s proposal to build a resort casino on land owned by Suffolk Downs.",
  "location": "Revere (Mass)",
  "lat": 42.4030196689883,
  "lng": -71.0143549179586,
  "url": "http://www.nytimes.com/2014/02/26/us/massachusetts-revere-voters-approve-casino-proposal-by-mohegan-sun.html",
  "date": "2014-02-26T00:00:00Z"
},
{
  "title": "Massachusetts Regulators Approve a Gas-Fired Power Plant With an Expiration Date",
  "body": "A state regulator accepted a plan to let a natural gas-fired plant be built, with emissions to be gradually reduced until a set closing date.",
  "location": "Massachusetts",
  "lat": 42.41100466022441,
  "lng": -71.38466713699748,
  "url": "http://www.nytimes.com/2014/02/21/business/energy-environment/massachusetts-approves-a-gas-power-plant-with-an-expiration-date.html",
  "date": "2014-02-21T00:00:00Z"
},
{
  "title": "The Employer Mandate: Dukakis All Over Again",
  "body": "The delays in carrying out various aspects of the Affordable Care Act are eerily similar to those of a Massachusetts health care law passed in 1988 at the urging of Gov. Michael Dukakis, an economist writes.",
  "location": "Massachusetts",
  "lat": 42.40046114749416,
  "lng": -71.38472769454529,
  "url": "http://economix.blogs.nytimes.com/2014/02/19/the-employer-mandate-dukakis-all-over-again/",
  "date": "2014-02-19T00:01:48Z"
},
{
  "title": "Massachusetts Is Given Extension",
  "body": "The state, which had its own health insurance exchange before the Affordable Care Act, has been given another three months to manage a balky transition.",
  "location": "Massachusetts",
  "lat": 42.40486556127854,
  "lng": -71.38201181582002,
  "url": "http://www.nytimes.com/news/affordable-care-act/2014/02/13/massachusetts-is-given-extension/",
  "date": "2014-02-13T19:43:09Z"
},
{
  "title": "Massachusetts Appoints Official and Hires Firm to Fix Exchange Problems",
  "body": "Gov. Deval Patrick of Massachusetts has appointed an insurance executive to oversee the state’s bungled effort to comply with President Obama’s health care law. The state will also pay a technology firm to help.",
  "location": "Massachusetts",
  "lat": 42.40002246163233,
  "lng": -71.3825225725957,
  "url": "http://www.nytimes.com/news/affordable-care-act/2014/02/07/massachusetts-appoints-official-and-hires-firm-to-fix-exchange-problems/",
  "date": "2014-02-07T19:25:34Z"
},
{
  "title": "Dreaming About a Summer Rental? Act Soon",
  "body": "Sure, it’s winter now, but if you want to enjoy the warm weather ahead in a vacation home, you may want to get moving.",
  "location": "New Jersey",
  "lat": 40.05974090028079,
  "lng": -74.40370583861494,
  "url": "http://www.nytimes.com/2014/02/02/travel/dreaming-about-a-summer-rental-act-soon.html",
  "date": "2014-02-02T00:00:00Z"
},
{
  "title": "Boston Fed’s Latest Role: Community Organizer",
  "body": "The Federal Reserve Bank of Boston funneled $1.8 million from outside donors to help turn around some of the Massachusetts’ most depressed midsize cities.",
  "location": "Massachusetts",
  "lat": 42.403818028139064,
  "lng": -71.37811061914765,
  "url": "http://www.nytimes.com/2014/01/21/business/boston-feds-latest-role-community-organizer.html",
  "date": "2014-01-21T00:00:00Z"
},
{
  "title": "Massachusetts: Court Upholds Sex Change for Inmate",
  "body": "A federal appeals court has upheld a ruling requiring the State Department of Corrections to provide gender reassignment surgery for an inmate serving a life sentence for murdering his wife.",
  "location": "Massachusetts",
  "lat": 42.40519989903116,
  "lng": -71.38266811846911,
  "url": "http://www.nytimes.com/2014/01/18/us/massachusetts-court-upholds-sex-change-for-inmate.html",
  "date": "2014-01-18T00:00:00Z"
},
{
  "title": "Justices Seem Split on Abortion Clinic Buffer Zones, but Crucial Voice Is Silent",
  "body": "The Supreme Court heard arguments in a challenge to a Massachusetts law, but Chief Justice John G. Roberts Jr., who almost certainly holds the crucial vote, asked no questions.",
  "location": "Massachusetts",
  "lat": 42.40605970081329,
  "lng": -71.38975312146782,
  "url": "http://www.nytimes.com/2014/01/16/us/justices-seem-split-on-buffer-zones-at-abortion-clinics.html",
  "date": "2014-01-16T00:00:00Z"
},
{
  "title": "Abortion Rights: Uphold Buffer Zones",
  "body": "The Supreme Court should uphold sensible buffer zones at health clinics.",
  "location": "Massachusetts",
  "lat": 42.40193502102758,
  "lng": -71.3866228966949,
  "url": "http://www.nytimes.com/2014/01/14/opinion/abortion-rights-uphold-buffer-zones.html",
  "date": "2014-01-14T00:00:00Z"
},
{
  "title": "Another Dingell Is Expected to Run for Congress in Michigan",
  "body": "Debbie Dingell, the wife of Representative John Dingell, the Michigan Democrat who announced his retirement, will declare her intentions on Friday, a person briefed on her plans said.",
  "location": "Michigan",
  "lat": 44.307350127115406,
  "lng": -85.60648855915666,
  "url": "http://www.nytimes.com/2014/02/26/us/politics/debbie-dingell-expected-to-seek-her-husbands-seat-in-congress.html",
  "date": "2014-02-26T00:00:00Z"
},
{
  "title": "Share Your Experience With Race on Campus",
  "body": "Tell us about your experience with race on your campus with the hashtag #TellNYT.",
  "location": "Michigan",
  "lat": 44.32056521423466,
  "lng": -85.59501753997566,
  "url": "http://thelede.blogs.nytimes.com/2014/02/25/share-your-experience-with-race-on-campus/",
  "date": "2014-02-25T15:06:41Z"
},
{
  "title": "John Dingell to Retire After Nearly 60 Years in House",
  "body": "Representative John D. Dingell, Democrat of Michigan and the longest serving member of Congress in history, announced that he would not seek re-election. He was first elected to the House in 1955.",
  "location": "United States",
  "lat": 37.095875455345954,
  "lng": -95.71153265332879,
  "url": "http://www.nytimes.com/2014/02/25/us/politics/dingell-to-retire-from-congress.html",
  "date": "2014-02-25T00:00:00Z"
},
{
  "title": "Dingell, Longest-Serving Member of Congress, Will Retire",
  "body": "Representative John D. Dingell, Democrat of Michigan, who is serving his 29th full term, announced his plans to retire on Monday.",
  "location": "Michigan",
  "lat": 44.314138554169496,
  "lng": -85.60050756429102,
  "url": "http://www.nytimes.com/slideshow/2014/02/24/us/politics/20140224_DINGELL.html",
  "date": "2014-02-24T00:00:00Z"
},
{
  "title": "Opponents of Same-Sex Marriage Take Bad-for-Children Argument to Court",
  "body": "Those testifying in defense of Michigan\u0026#8217;s ban will wield sharply disputed recent studies finding that the children of same-sex couples did not fare as well as children raised by married heterosexuals.",
  "location": "Michigan",
  "lat": 44.30944948703535,
  "lng": -85.59841318877545,
  "url": "http://www.nytimes.com/2014/02/23/us/opponents-of-same-sex-marriage-take-bad-for-children-argument-to-court.html",
  "date": "2014-02-23T00:00:00Z"
},